[{"_id": "652155b00d26ec3ff85043b0", "identifier": "8972c549-f3d4-3b88-a71e-501ba353abca", "label": "Mus\u00e9e des Archives Nationales - H\u00f4tel de Soubise", "streetaddress": "H\u00f4tels de Soubise et de Rohan - 60 rue des Francs Bourgeois", "postalcode": 75003, "department": "Paris", "region": "\u00cele-de-France", "latitude": 48.8600636, "longitude": 2.356864900000005}, {"_id": "652155b00d26ec3ff85043b1", "identifier": "9dc501c3-26f1-4279-c276-501ba473c128", "label": "March\u00e9 Al\u00e9sia", "streetaddress": "Rue de la Glaci\u00e8re", "postalcode": 75013, "department": "Paris", "region": "\u00cele-de-France", "latitude": 48.8318992, "longitude": 2.3444131999999627}, {"_id": "652155b00d26ec3ff85043b2", "identifier": "699084", "label": "Mus\u00e9e national Picasso-Paris", "streetaddress": "5 rue de Thorigny", "postalcode": 75003, "department": "Paris", "region": "\u00cele-de-France", "latitude": 48.859683, "longitude": 2.36241}, {"_id": "652155b00d26ec3ff85043b3", "identifier": "697206", "label": "Fondation Cartier pour l'art contemporain", "streetaddress": "261 boulevard Raspail", "postalcode": 75014, "department": "Paris", "region": "\u00cele-de-France", "latitude": 48.837343, "longitude": 2.331953}, {"_id": "652155b00d26ec3ff85043b4", "identifier": "4776998", "label": "Tour Saint-Jacques", "streetaddress": "Square de la Tour Saint-Jacques", "postalcode": 75004, "department": "Paris", "region": "\u00cele-de-France", "latitude": 48.857696, "longitude": 2.349141}, {"_id": "652155b00d26ec3ff85043b5", "identifier": "88bcb95d-565b-0e6a-8dfe-501ba36cc080", "label": "Temple de Pentemont", "streetaddress": "106 rue de Grenelle", "postalcode": 75007, "department": "Paris", "region": "\u00cele-de-France", "latitude": 48.85637699999999, "longitude": 2.321646200000032}, {"_id": "652155b00d26ec3ff85043b6", "identifier": "704476", "label": "M\u00e9morial de la Shoah - Paris", "streetaddress": "17 rue Geoffroy l'Asnier", "postalcode": 75004, "department": "Paris", "region": "\u00cele-de-France", "latitude": 48.854918, "longitude": 2.356064}, {"_id": "652155b00d26ec3ff85043b7", "identifier": "197b5ce7-015b-8a37-c06b-501ba3aaf956", "label": "Jardins d'\u00c9ole", "streetaddress": "20 rue du D\u00e9partement", "postalcode": 75018, "department": "Paris", "region": "\u00cele-de-France", "latitude": 48.8866727, "longitude": 2.362613099999976}, {"_id": "652155b00d26ec3ff85043b8", "identifier": "79d37a60-d136-11ec-b26b-0050569afc27", "label": "L'Acad\u00e9mie du climat", "streetaddress": "2 place Baudoyer", "postalcode": 75004, "department": "Paris", "region": "\u00cele-de-France", "latitude": 48.85614835, "longitude": 2.355781938999999}, {"_id": "652155b00d26ec3ff85043b9", "identifier": "d7474273-3754-16a5-aad9-501ba38e2c3c", "label": "Palais de la d\u00e9couverte", "streetaddress": "Avenue Franklin D. Roosevelt", "postalcode": 75008, "department": "Paris", "region": "\u00cele-de-France", "latitude": 48.86622934306983, "longitude": 2.310451049737594}, {"_id": "652155b00d26ec3ff85043ba", "identifier": "d888d74a-1187-d6e7-084f-501ba31b3bf9", "label": "Centre culturel alg\u00e9rien", "streetaddress": "171 rue de la Croix Nivert", "postalcode": 75015, "department": "Paris", "region": "\u00cele-de-France", "latitude": 48.8397081, "longitude": 2.2901289000000133}, {"_id": "652155b00d26ec3ff85043bb", "identifier": "e1c03f01-306f-a8a3-75a9-51ffae6715da", "label": "Passage Verdeau", "streetaddress": "6 rue de la Grange-Bateli\u00e8re", "postalcode": 75003, "department": "Paris", "region": "\u00cele-de-France", "latitude": 48.8731452, "longitude": 2.342089299999998}, {"_id": "652155b00d26ec3ff85043bc", "identifier": "6546528", "label": "Galerie Vivienne", "streetaddress": "4 Rue des Petits Champs", "postalcode": 75002, "department": "Paris", "region": "\u00cele-de-France", "latitude": 48.866215, "longitude": 2.339481}, {"_id": "652155b00d26ec3ff85043bd", "identifier": "5cb56b74-7ee9-1593-074b-501ba39b363e", "label": "Au bonheur du jour", "streetaddress": "1 rue Chabanais", "postalcode": 75002, "department": "Paris", "region": "\u00cele-de-France", "latitude": 48.8669865, "longitude": 2.3365861}, {"_id": "652155b00d26ec3ff85043be", "identifier": "5278f96d-64c2-e7d4-1e2b-50ec16de4d6c", "label": "March\u00e9 Alibert", "streetaddress": "Rue Alibert", "postalcode": 75010, "department": "Paris", "region": "\u00cele-de-France", "latitude": 48.8716489, "longitude": 2.367672099999936}, {"_id": "652155b00d26ec3ff85043bf", "identifier": "5778447", "label": "H\u00f4tel de la Marine", "streetaddress": "2 Place de la Concorde", "postalcode": 75008, "department": "Paris", "region": "\u00cele-de-France", "latitude": 48.86677, "longitude": 2.322981}, {"_id": "652155b10d26ec3ff85043c0", "identifier": "e5a7fe1a-4b0b-8909-0346-50ebfbb7e1b8", "label": "March\u00e9 Saint-Honor\u00e9", "streetaddress": "Place du March\u00e9 Saint-Honor\u00e9", "postalcode": 75001, "department": "Paris", "region": "\u00cele-de-France", "latitude": 48.866912, "longitude": 2.3321813999999677}, {"_id": "652155b10d26ec3ff85043c1", "identifier": "5607456", "label": "Fondation GoodPlanet", "streetaddress": "1 Carrefour de Longchamp", "postalcode": 75016, "department": "Paris", "region": "\u00cele-de-France", "latitude": 48.865118, "longitude": 2.237971}, {"_id": "652155b10d26ec3ff85043c2", "identifier": "5a999fa4-d6bb-8b55-3753-501ba31f8483", "label": "Bassin de La Villette", "streetaddress": "Quai de la Seine", "postalcode": 75019, "department": "Paris", "region": "\u00cele-de-France", "latitude": 48.8866796, "longitude": 2.3745539000000235}, {"_id": "652155b10d26ec3ff85043c3", "identifier": "20709566-a536-11eb-abe0-0050569afc27", "label": "Square Emmanuel Fleury", "streetaddress": "40 rue Le Vau", "postalcode": 75020, "department": "Paris", "region": "\u00cele-de-France", "latitude": 48.870369800000006, "longitude": 2.4117691104709458}, {"_id": "652155b10d26ec3ff85043c4", "identifier": "ac9430e7-9cd4-dc04-08ac-501ba38bfa8a", "label": "Mus\u00e9e de la Sculpture en plein air", "streetaddress": "Quai Saint Bernard - Square Tino Rossi", "postalcode": 75005, "department": "Paris", "region": "\u00cele-de-France", "latitude": 48.846853, "longitude": 2.360944199999949}, {"_id": "652155b10d26ec3ff85043c5", "identifier": "11fb8ba2-23b5-2f57-e837-501ba30f8399", "label": "Mus\u00e9e national Gustave Moreau", "streetaddress": "14 rue de la Rochefoucauld", "postalcode": 75009, "department": "Paris", "region": "\u00cele-de-France", "latitude": 48.8779704, "longitude": 2.334450400000037}, {"_id": "652155b10d26ec3ff85043c6", "identifier": "adb1e78c-37a4-6d23-6dd6-501ba3d63d41", "label": "Square Georges Cain", "streetaddress": "8 rue Payenne", "postalcode": 75003, "department": "Paris", "region": "\u00cele-de-France", "latitude": 48.8580453, "longitude": 2.362264699999969}, {"_id": "652155b10d26ec3ff85043c7", "identifier": "eb258fa9-ba69-8545-76f7-501ba355f109", "label": "Maison La Roche", "streetaddress": "10 square du Docteur Blanche (entr\u00e9e par le 55 rue du Docteur Blanche)", "postalcode": 75016, "department": "Paris", "region": "\u00cele-de-France", "latitude": 48.85209709999999, "longitude": 2.265172200000052}, {"_id": "652155b10d26ec3ff85043c8", "identifier": "be6e3aba-5a50-4d59-219e-501ba3544e69", "label": "M\u00e9morial de la Guerre d'Alg\u00e9rie et des combats Maroc - Tunisie", "streetaddress": "Quai Branly - Entre le Pont d\u2019I\u00e9na et l\u2019avenue de la Bourdonnais", "postalcode": 75007, "department": "Paris", "region": "\u00cele-de-France", "latitude": 48.85985564148101, "longitude": 2.2941423638626475}, {"_id": "652155b10d26ec3ff85043c9", "identifier": "95d3b856-36d2-4a1c-df75-501ba3c8f2d7", "label": "Mus\u00e9e national de l\u2019histoire de l\u2019immigration", "streetaddress": "Palais de la Porte Dor\u00e9e - 293 avenue Daumesnil", "postalcode": 75012, "department": "Paris", "region": "\u00cele-de-France", "latitude": 48.8349041, "longitude": 2.408507800000052}, {"_id": "652155b10d26ec3ff85043ca", "identifier": "990a90cc-edd2-38db-d932-501ba3a0c915", "label": "Ateliers d'artistes de Belleville", "streetaddress": "1 rue Francis Picabia", "postalcode": 75020, "department": "Paris", "region": "\u00cele-de-France", "latitude": 48.8696894, "longitude": 2.3821027000000186}, {"_id": "652155b10d26ec3ff85043cb", "identifier": "776778", "label": "Parc de Belleville", "streetaddress": "47 rue des Couronnes", "postalcode": 75020, "department": "Paris", "region": "\u00cele-de-France", "latitude": 48.870256, "longitude": 2.384822}, {"_id": "652155b10d26ec3ff85043cc", "identifier": "e33ab609-5645-4b09-a8ed-501ba39d3934", "label": "Observatoire de Paris", "streetaddress": "61 avenue de l'Observatoire", "postalcode": 75014, "department": "Paris", "region": "\u00cele-de-France", "latitude": 48.8376631, "longitude": 2.335781900000029}, {"_id": "652155b10d26ec3ff85043cd", "identifier": "e149ae04-cea7-11eb-833a-0050569afc27", "label": "Tour de la biodiversit\u00e9 - M6B2", "streetaddress": "Place Farhat Hached", "postalcode": 75013, "department": "Paris", "region": "\u00cele-de-France", "latitude": 48.8260325, "longitude": 2.380892713940747}, {"_id": "652155b10d26ec3ff85043ce", "identifier": "d6b20084-a6f0-4387-a00e-501ba3963d59", "label": "Institut Cervantes", "streetaddress": "7 rue Quentin Bauchart", "postalcode": 75008, "department": "Paris", "region": "\u00cele-de-France", "latitude": 48.8691952, "longitude": 2.2996994000000086}, {"_id": "652155b10d26ec3ff85043cf", "identifier": "5796472", "label": "Test PCU", "streetaddress": "Place Charles-de-Gaulle", "postalcode": 75008, "department": "Paris", "region": "\u00cele-de-France", "latitude": 48.873757, "longitude": 2.295909}, {"_id": "652155b10d26ec3ff85043d0", "identifier": "802494a4-658d-8be6-679c-501ba3dd04ba", "label": "Chapelle Notre-Dame de la M\u00e9daille Miraculeuse", "streetaddress": "140 rue du Bac", "postalcode": 75007, "department": "Paris", "region": "\u00cele-de-France", "latitude": 48.851, "longitude": 2.3237400000000434}, {"_id": "652155b10d26ec3ff85043d1", "identifier": "b9d2461f-cf14-dc64-5cd0-50815f0babbf", "label": "Square Jules Verne", "streetaddress": "19 bis rue de l\u2019Orillon", "postalcode": 75011, "department": "Paris", "region": "\u00cele-de-France", "latitude": 48.8574262, "longitude": 2.36986150000007}, {"_id": "652155b10d26ec3ff85043d2", "identifier": "eec19e69-12e4-9e05-96af-501ba3b283c6", "label": "Institut finlandais", "streetaddress": "60 rue des \u00c9coles et 33 rue du Sommerard", "postalcode": 75005, "department": "Paris", "region": "\u00cele-de-France", "latitude": 48.8501403, "longitude": 2.343097700000044}, {"_id": "652155b10d26ec3ff85043d3", "identifier": "8f5df967-9b34-4cac-e15c-501ba361b409", "label": "Mus\u00e9e Bourdelle", "streetaddress": "18 rue Antoine Bourdelle", "postalcode": 75015, "department": "Paris", "region": "\u00cele-de-France", "latitude": 48.84314149999999, "longitude": 2.3185435000000325}, {"_id": "652155b10d26ec3ff85043d4", "identifier": "5bcc70d2-5bf0-11ec-9251-0050569afc27", "label": "Colonne de Juillet", "streetaddress": "Place de la Bastille", "postalcode": 75011, "department": "Paris", "region": "\u00cele-de-France", "latitude": 48.853159729416106, "longitude": 2.3691415786743164}, {"_id": "652155b10d26ec3ff85043d5", "identifier": "87b522ba-f05a-4ce8-f2fe-501ba33348e5", "label": "Square de la place du Commerce", "streetaddress": "18 place du Commerce", "postalcode": 75015, "department": "Paris", "region": "\u00cele-de-France", "latitude": 48.8445111, "longitude": 2.293706899999961}, {"_id": "652155b10d26ec3ff85043d6", "identifier": "6816e3fb-4d2b-12f4-2272-501ba36a0631", "label": "Bastille Design Center", "streetaddress": "74 boulevard Richard Lenoir", "postalcode": 75011, "department": "Paris", "region": "\u00cele-de-France", "latitude": 48.86092559999999, "longitude": 2.372960199999966}, {"_id": "652155b10d26ec3ff85043d7", "identifier": "39013a9f-9e7b-e0f1-3cd0-50758d69578a", "label": "Grande Galerie de l'\u00c9volution - Mus\u00e9um national d'histoire naturelle", "streetaddress": "36 rue Geoffroy Saint-Hilaire", "postalcode": 75005, "department": "Paris", "region": "\u00cele-de-France", "latitude": 48.8414229, "longitude": 2.3562147000000095}, {"_id": "652155b10d26ec3ff85043d8", "identifier": "6b6edc9b-125c-818f-1910-501ba3230976", "label": "Montmartre aux Artistes", "streetaddress": "189 rue Ordener", "postalcode": 75018, "department": "Paris", "region": "\u00cele-de-France", "latitude": 48.8937249, "longitude": 2.334660500000041}, {"_id": "652155b10d26ec3ff85043d9", "identifier": "4c14e135-0dad-758e-4264-501ba4a3f98a", "label": "March\u00e9 aux timbres", "streetaddress": "Avenue Marigny", "postalcode": 75008, "department": "Paris", "region": "\u00cele-de-France", "latitude": 48.8683716, "longitude": 2.31638989999999}, {"_id": "652155b10d26ec3ff85043da", "identifier": "7de6233e-31ac-c294-fb25-51ffaa5492ef", "label": "Galerie Vivienne", "streetaddress": "4 rue des Petits-Champs", "postalcode": 75002, "department": "Paris", "region": "\u00cele-de-France", "latitude": 48.8662561, "longitude": 2.339334699999995}, {"_id": "652155b10d26ec3ff85043db", "identifier": "b6d4d6c0-a441-11eb-83dd-0050569afc27", "label": "Echomus\u00e9e - Goutte d'Or", "streetaddress": "21 rue Cav\u00e9", "postalcode": 75018, "department": "Paris", "region": "\u00cele-de-France", "latitude": 48.886666, "longitude": 2.3537812}, {"_id": "652155b10d26ec3ff85043dc", "identifier": "18a54881-ab31-da8f-18b6-561542e713c5", "label": "Galerie 22,48m\u00b2", "streetaddress": "30 rue des Envierges", "postalcode": 75020, "department": "Paris", "region": "\u00cele-de-France", "latitude": 48.8720886, "longitude": 2.3872638999999936}, {"_id": "652155b10d26ec3ff85043dd", "identifier": "c943ce12-a539-11eb-a884-0050569afc27", "label": "Paroisse Saint-Germain de Charonne", "streetaddress": "4 place Saint-Blaise", "postalcode": 75020, "department": "Paris", "region": "\u00cele-de-France", "latitude": 48.860510950000005, "longitude": 2.4040206450068196}, {"_id": "652155b10d26ec3ff85043de", "identifier": "e2fef7d7-04bc-59e8-f511-501ba34aea48", "label": "Square Nadar", "streetaddress": "2 rue Saint-Eleuth\u00e8re", "postalcode": 75018, "department": "Paris", "region": "\u00cele-de-France", "latitude": 48.8857879, "longitude": 2.341829700000062}, {"_id": "652155b10d26ec3ff85043df", "identifier": "cd289d76-7351-cc04-5f6b-501ba32814be", "label": "Synagogue de la rue des Tournelles", "streetaddress": "21 bis rue des Tournelles", "postalcode": 75004, "department": "Paris", "region": "\u00cele-de-France", "latitude": 48.8546661, "longitude": 2.3673314999999775}, {"_id": "652155b10d26ec3ff85043e0", "identifier": "f36e5784-7933-b38c-c4f2-501ba37d4c63", "label": "Mus\u00e9e Maillol", "streetaddress": "61 rue de Grenelle", "postalcode": 75007, "department": "Paris", "region": "\u00cele-de-France", "latitude": 48.85473469999999, "longitude": 2.3248413000000028}, {"_id": "652155b10d26ec3ff85043e1", "identifier": "3b71dbff-be73-02d0-fe24-55d1ba845610", "label": "Galerie Eric Dupont", "streetaddress": "138 rue du Temple", "postalcode": 75003, "department": "Paris", "region": "\u00cele-de-France", "latitude": 48.8637746, "longitude": 2.358650500000067}, {"_id": "652155b10d26ec3ff85043e2", "identifier": "c9b84ed7-97ae-86f9-eac5-501ba334530e", "label": "\u00c9cole nationale sup\u00e9rieure des Beaux-arts", "streetaddress": "14 rue Bonaparte", "postalcode": 75006, "department": "Paris", "region": "\u00cele-de-France", "latitude": 48.8566077, "longitude": 2.3346182000000226}, {"_id": "652155b10d26ec3ff85043e3", "identifier": "101ba744-0dbf-11e8-a2cb-0050569a22ea", "label": "Jardin d'agronomie tropicale Ren\u00e9-Dumont", "streetaddress": "45 bis avenue de la Belle-Gabrielle - Bois de Vincennes", "postalcode": 75012, "department": "Paris", "region": "\u00cele-de-France", "latitude": 48.8345043, "longitude": 2.4694540000000416}, {"_id": "652155b10d26ec3ff85043e4", "identifier": "a01ce736-41d2-352a-b172-55f933532b82", "label": "Plaine de jeux de Bagatelle", "streetaddress": "149 all\u00e9e du Bord de l'Eau", "postalcode": 75016, "department": "Paris", "region": "\u00cele-de-France", "latitude": 48.8729471, "longitude": 2.2464734000000135}, {"_id": "652155b10d26ec3ff85043e5", "identifier": "5334254", "label": "Mus\u00e9e des \u00e9gouts", "streetaddress": null, "postalcode": 75007, "department": "Paris", "region": "\u00cele-de-France", "latitude": 48.853766, "longitude": 2.312241}, {"_id": "652155b10d26ec3ff85043e6", "identifier": "9886933f-5018-67aa-cf0b-50ec1be25043", "label": "March\u00e9 Auteuil", "streetaddress": "Place Jean Lorrain", "postalcode": 75016, "department": "Paris", "region": "\u00cele-de-France", "latitude": 48.8481404, "longitude": 2.264756700000021}, {"_id": "652155b10d26ec3ff85043e7", "identifier": "adaba5d0-a2cc-5efb-c08a-50ebfc37850b", "label": "March\u00e9 Bourse", "streetaddress": "Place de la Bourse", "postalcode": 75002, "department": "Paris", "region": "\u00cele-de-France", "latitude": 48.8686521, "longitude": 2.3413410000000567}, {"_id": "652155b10d26ec3ff85043e8", "identifier": "c541ccec-fdbe-bdc1-8bab-501ba3f870b6", "label": "H\u00f4tel national des Invalides", "streetaddress": "Esplanade des Invalides", "postalcode": 75007, "department": "Paris", "region": "\u00cele-de-France", "latitude": 48.8612598, "longitude": 2.3132653999999775}, {"_id": "652155b10d26ec3ff85043e9", "identifier": "a20ce849-3ad8-4e18-ea5d-501ba3b1e896", "label": "Ateliers d'Artistes - Les Frigos", "streetaddress": "19 rue des Frigos", "postalcode": 75013, "department": "Paris", "region": "\u00cele-de-France", "latitude": 48.83158599999999, "longitude": 2.3791645000000017}, {"_id": "652155b10d26ec3ff85043ea", "identifier": "5fd21c13-f428-5071-0512-501ba38e05c1", "label": "Paroisse Saint-Nicolas des Champs", "streetaddress": "254 rue Saint-Martin", "postalcode": 75003, "department": "Paris", "region": "\u00cele-de-France", "latitude": 48.8659667, "longitude": 2.3537794999999733}, {"_id": "652155b10d26ec3ff85043eb", "identifier": "9fbf5a89-f1d6-dcf5-c4dc-501ba3ee8198", "label": "Biblioth\u00e8que Nationale de France - Richelieu", "streetaddress": "58 rue de Richelieu", "postalcode": 75002, "department": "Paris", "region": "\u00cele-de-France", "latitude": 48.8679064, "longitude": 2.3381193999999823}, {"_id": "652155b10d26ec3ff85043ec", "identifier": "3a7f1aa8-fb98-11ed-8230-0050569afc27", "label": "Paradox Museum Paris", "streetaddress": "38 boulevard des Italiens", "postalcode": 75009, "department": "Paris", "region": "\u00cele-de-France", "latitude": 48.87118698976525, "longitude": 2.334433040737366}, {"_id": "652155b10d26ec3ff85043ed", "identifier": "5d4650ad-8ad9-58b0-9a7e-51ffc8da8a2a", "label": "Galerie Colbert", "streetaddress": "4 rue Vivienne", "postalcode": 75002, "department": "Paris", "region": "\u00cele-de-France", "latitude": 48.8666965, "longitude": 2.3389031000000386}, {"_id": "652155b10d26ec3ff85043ee", "identifier": "683890", "label": "Mus\u00e9e Marmottan Monet", "streetaddress": "2 rue Louis Boilly", "postalcode": 75016, "department": "Paris", "region": "\u00cele-de-France", "latitude": 48.859226, "longitude": 2.267221}, {"_id": "652155b10d26ec3ff85043ef", "identifier": "a45c0e35-cd51-89a0-0bfb-532b0c89591f", "label": "Yoyo", "streetaddress": "Palais de Tokyo - 13 avenue du Pr\u00e9sident Wilson", "postalcode": 75016, "department": "Paris", "region": "\u00cele-de-France", "latitude": 48.8643979, "longitude": 2.2929807000000437}, {"_id": "652155b20d26ec3ff85043f0", "identifier": "4956684", "label": "L'Atelier des Lumi\u00e8res", "streetaddress": "38 rue Saint-Maur", "postalcode": 75011, "department": "Paris", "region": "\u00cele-de-France", "latitude": 48.861615, "longitude": 2.380813}, {"_id": "652155b20d26ec3ff85043f1", "identifier": "a549ced6-a43e-11eb-8c83-0050569afc27", "label": "Fontaines Landowski", "streetaddress": "Place de la porte de Saint-Cloud", "postalcode": 75016, "department": "Paris", "region": "\u00cele-de-France", "latitude": 48.8374817, "longitude": 2.2571977}, {"_id": "652155b20d26ec3ff85043f2", "identifier": "699581", "label": "Mus\u00e9e national de la Marine - Ferm\u00e9 jusqu'en 2022", "streetaddress": "17 place du Trocad\u00e9ro", "postalcode": 75016, "department": "Paris", "region": "\u00cele-de-France", "latitude": 48.86236, "longitude": 2.2881}, {"_id": "652155b20d26ec3ff85043f3", "identifier": "456d0609-fce7-6676-7c42-501ba3a5bf4e", "label": "Biblioth\u00e8que Forney", "streetaddress": "H\u00f4tel de Sens - 1 rue du Figuier", "postalcode": 75004, "department": "Paris", "region": "\u00cele-de-France", "latitude": 48.8533812, "longitude": 2.3593806999999742}, {"_id": "652155b20d26ec3ff85043f4", "identifier": "589b2df5-9a24-1738-0ac3-55d2e96af6a6", "label": "Le BAL", "streetaddress": "6 impasse de la D\u00e9fense", "postalcode": 75018, "department": "Paris", "region": "\u00cele-de-France", "latitude": 48.88526830000001, "longitude": 2.327322900000013}, {"_id": "652155b20d26ec3ff85043f5", "identifier": "a404f11b-d7d9-8135-bd1c-50ebfcff6f54", "label": "March\u00e9 Baudoyer", "streetaddress": "Place Baudoyer", "postalcode": 75004, "department": "Paris", "region": "\u00cele-de-France", "latitude": 48.8561549, "longitude": 2.35538889999998}, {"_id": "652155b20d26ec3ff85043f6", "identifier": "777543", "label": "Parc Georges-Brassens", "streetaddress": "2 place Jacques Marette", "postalcode": 75015, "department": "Paris", "region": "\u00cele-de-France", "latitude": 48.832804, "longitude": 2.300789}, {"_id": "652155b20d26ec3ff85043f7", "identifier": "456c1bc6-7de5-6ea4-c562-5612376c36d6", "label": "Galerie Nathalie Obadia", "streetaddress": "3 rue du Clo\u00eetre Saint-Merri (et 18 rue du Bourg-Tibourg)", "postalcode": 75004, "department": "Paris", "region": "\u00cele-de-France", "latitude": 48.8587758, "longitude": 2.3517684999999346}, {"_id": "652155b20d26ec3ff85043f8", "identifier": "4602110", "label": "La Philharmonie de Paris en famille", "streetaddress": "221 avenue Jean-Jaur\u00e8s", "postalcode": 75019, "department": "Paris", "region": "\u00cele-de-France", "latitude": 48.889306, "longitude": 2.393807}, {"_id": "652155b20d26ec3ff85043f9", "identifier": "734aee6d-db3c-82d3-4e71-501ba38a65c1", "label": "M\u00e9tropole Grecque Orthodoxe", "streetaddress": "7 rue Georges Bizet", "postalcode": 75016, "department": "Paris", "region": "\u00cele-de-France", "latitude": 48.86674920307675, "longitude": 2.298627116671696}, {"_id": "652155b20d26ec3ff85043fa", "identifier": "776533", "label": "Jardin Catherine Labour\u00e9", "streetaddress": "29 rue de Babylone", "postalcode": 75007, "department": "Paris", "region": "\u00cele-de-France", "latitude": 48.851686, "longitude": 2.320872}, {"_id": "652155b20d26ec3ff85043fb", "identifier": "32571ac3-3997-e75d-05dd-501ba3b38dbd", "label": "Paroisse Saint-Augustin", "streetaddress": "1 avenue C\u00e9sar Caire", "postalcode": 75008, "department": "Paris", "region": "\u00cele-de-France", "latitude": 48.8767017, "longitude": 2.3193043999999645}, {"_id": "652155b20d26ec3ff85043fc", "identifier": "835198", "label": "Mus\u00e9e des arts forains", "streetaddress": "53 Avenue des Terroirs de France", "postalcode": 75012, "department": "Paris", "region": "\u00cele-de-France", "latitude": 48.832605, "longitude": 2.389228}, {"_id": "652155b20d26ec3ff85043fd", "identifier": "705839", "label": "Mus\u00e9e Cognacq-Jay", "streetaddress": "8 rue Elzevir", "postalcode": 75003, "department": "Paris", "region": "\u00cele-de-France", "latitude": 48.858159, "longitude": 2.36161}, {"_id": "652155b20d26ec3ff85043fe", "identifier": "01c6e79a-cea4-11eb-abec-0050569afc27", "label": "Paris Val de Seine - \u00c9cole nationale sup\u00e9rieure d'architecture  - ENSA", "streetaddress": "3 quai Panhard et Levassor", "postalcode": 75013, "department": "Paris", "region": "\u00cele-de-France", "latitude": 48.8274469, "longitude": 2.3851728}, {"_id": "652155b20d26ec3ff85043ff", "identifier": "5361507", "label": "Jardins de l'Ecole du Breuil", "streetaddress": "Route de la Ferme Bois de Vincennes", "postalcode": 75012, "department": "Paris", "region": "\u00cele-de-France", "latitude": 48.823788, "longitude": 2.457241}, {"_id": "652155b20d26ec3ff8504400", "identifier": "3e27db30-0423-11ed-82a5-0050569afc27", "label": "Le 19M", "streetaddress": "2 Place Skanderbeg", "postalcode": 75019, "department": "Paris", "region": "\u00cele-de-France", "latitude": 48.90218335127536, "longitude": 2.3726651995772507}, {"_id": "652155b20d26ec3ff8504401", "identifier": "816851", "label": "Jardin naturel  Pierre Emmanuel", "streetaddress": "120 rue de la R\u00e9union", "postalcode": 75020, "department": "Paris", "region": "\u00cele-de-France", "latitude": 48.858571, "longitude": 2.399024}, {"_id": "652155b20d26ec3ff8504402", "identifier": "ebd90738-8012-f2b1-2888-501ba3b33e55", "label": "\u00c9glise protestante unie de Paris Batignolles", "streetaddress": "44 boulevard des Batignolles", "postalcode": 75017, "department": "Paris", "region": "\u00cele-de-France", "latitude": 48.8827911, "longitude": 2.3228346999999303}, {"_id": "652155b20d26ec3ff8504403", "identifier": "bf2c9a14-1fd1-aab6-705f-501ba31df630", "label": "\u00c9glise Saint-Eustache", "streetaddress": "146 rue Rambuteau", "postalcode": 75001, "department": "Paris", "region": "\u00cele-de-France", "latitude": 48.8636846, "longitude": 2.3446675999999798}, {"_id": "652155b20d26ec3ff8504404", "identifier": "4bac9805-f83d-b231-201d-501ba385b20d", "label": "Maison de Victor Hugo", "streetaddress": "H\u00f4tel de Rohan-Gu\u00e9m\u00e9n\u00e9e - 6 place des Vosges", "postalcode": 75004, "department": "Paris", "region": "\u00cele-de-France", "latitude": 48.8548443, "longitude": 2.3661885999999868}, {"_id": "652155b20d26ec3ff8504405", "identifier": "36e8dd63-3707-43e3-c1a6-54089acb693a", "label": "Fondation J\u00e9r\u00f4me Seydoux-Path\u00e9", "streetaddress": "73 avenue des Gobelins", "postalcode": 75013, "department": "Paris", "region": "\u00cele-de-France", "latitude": 48.8334986, "longitude": 2.3549118999999337}, {"_id": "652155b20d26ec3ff8504406", "identifier": "989a8c57-3e73-4ee4-1106-501ba39e080f", "label": "Parc Clichy-Batignolles - Martin Luther King", "streetaddress": "147 rue Cardinet", "postalcode": 75017, "department": "Paris", "region": "\u00cele-de-France", "latitude": 48.8889448, "longitude": 2.3158650999999963}, {"_id": "652155b20d26ec3ff8504407", "identifier": "6519998", "label": "Mus\u00e9e de l'illusion", "streetaddress": "98, rue Saint-Denis", "postalcode": 75001, "department": "Paris", "region": "\u00cele-de-France", "latitude": 48.863307, "longitude": 2.349951}, {"_id": "652155b20d26ec3ff8504408", "identifier": "8151195c-fa51-d605-e059-501ba34defc7", "label": "Mus\u00e9e national Picasso-Paris", "streetaddress": "5 rue de Thorigny", "postalcode": 75003, "department": "Paris", "region": "\u00cele-de-France", "latitude": 48.860255, "longitude": 2.363816400000019}, {"_id": "652155b20d26ec3ff8504409", "identifier": "12dad4e8-8877-7077-b639-501ba37a0bee", "label": "Op\u00e9ra national de Paris - Palais Garnier", "streetaddress": "Place de l'Op\u00e9ra", "postalcode": 75009, "department": "Paris", "region": "\u00cele-de-France", "latitude": 48.87064360000001, "longitude": 2.33211289999997}, {"_id": "652155b20d26ec3ff850440a", "identifier": "15570c47-8f0d-ec6f-741d-50ec175946ef", "label": "March\u00e9 P\u00e8re Lachaise", "streetaddress": "Boulevard de M\u00e9nilmontant - Entre les rues des Panoyaux et des Cendriers", "postalcode": 75011, "department": "Paris", "region": "\u00cele-de-France", "latitude": 48.8629997, "longitude": 2.3871493999999984}, {"_id": "652155b20d26ec3ff850440b", "identifier": "17a6e2d1-d2f9-c56d-8f44-501ba3ef2f42", "label": "\u00c9glise Notre-Dame de la Gare", "streetaddress": "6 place Jeanne d'Arc", "postalcode": 75013, "department": "Paris", "region": "\u00cele-de-France", "latitude": 48.8295035, "longitude": 2.368914000000018}, {"_id": "652155b20d26ec3ff850440c", "identifier": "da28b0d9-dce9-d087-7eef-501ba322404e", "label": "Square Alexandre et Ren\u00e9 Parodi", "streetaddress": "Boulevard de l'Amiral Bruix", "postalcode": 75016, "department": "Paris", "region": "\u00cele-de-France", "latitude": 48.8749308, "longitude": 2.2790052999999943}, {"_id": "652155b20d26ec3ff850440d", "identifier": "4614542", "label": "Le Jardin des Papillons", "streetaddress": "Parc Floral de Paris", "postalcode": 75012, "department": "Paris", "region": "\u00cele-de-France", "latitude": 48.839656, "longitude": 2.442035}, {"_id": "652155b20d26ec3ff850440e", "identifier": "bac5e5fc-8978-7f06-2a9c-501ba3073981", "label": "Jardin des serres d'Auteuil - Jardin botanique de Paris", "streetaddress": "3 avenue de la Porte d'Auteuil", "postalcode": 75016, "department": "Paris", "region": "\u00cele-de-France", "latitude": 48.846373207896214, "longitude": 2.252863497869839}, {"_id": "652155b20d26ec3ff850440f", "identifier": "b8ce5996-c6e2-11ec-acd8-0050569afc27", "label": "La Maison de la Conversation", "streetaddress": "10 - 12 rue Maurice Grimaud", "postalcode": 75018, "department": "Paris", "region": "\u00cele-de-France", "latitude": 48.90031100199573, "longitude": 2.3371409821962743}, {"_id": "652155b20d26ec3ff8504410", "identifier": "789605", "label": "Mus\u00e9e de la Pr\u00e9fecture de Police", "streetaddress": "4, rue de la Montagne Sainte-Genevi\u00e8ve", "postalcode": 75005, "department": "Paris", "region": "\u00cele-de-France", "latitude": 48.843491, "longitude": 2.351834}, {"_id": "652155b20d26ec3ff8504411", "identifier": "c107ba90-5bff-413f-c502-501ba3af0dfa", "label": "\u00c9glise Saint-Honor\u00e9-d'Eylau", "streetaddress": "9 place Victor Hugo", "postalcode": 75016, "department": "Paris", "region": "\u00cele-de-France", "latitude": 48.8693495, "longitude": 2.284865399999944}, {"_id": "652155b20d26ec3ff8504412", "identifier": "5170354", "label": "Le Mur Oberkampf", "streetaddress": "107 rue Oberkampf", "postalcode": 75011, "department": "Paris", "region": "\u00cele-de-France", "latitude": 48.86585, "longitude": 2.377788}, {"_id": "652155b20d26ec3ff8504413", "identifier": "697438", "label": "Cimeti\u00e8re du P\u00e8re-Lachaise", "streetaddress": "16 rue du Repos", "postalcode": 75020, "department": "Paris", "region": "\u00cele-de-France", "latitude": 48.861163, "longitude": 2.396173}, {"_id": "652155b20d26ec3ff8504414", "identifier": "a394fd39-8cb8-7b74-bc7d-501ba46f22e9", "label": "March\u00e9 couvert des Ternes", "streetaddress": "8 bis rue Lebon", "postalcode": 75017, "department": "Paris", "region": "\u00cele-de-France", "latitude": 48.8809068, "longitude": 2.2921542000000272}, {"_id": "652155b20d26ec3ff8504415", "identifier": "5d5aa436-a7a8-11e9-a7b1-0050569afc27", "label": "The World of Banksy", "streetaddress": "44 rue du Faubourg Montmartre", "postalcode": 75009, "department": "Paris", "region": "\u00cele-de-France", "latitude": 48.8747, "longitude": 2.3416499999999587}, {"_id": "652155b20d26ec3ff8504416", "identifier": "5176737", "label": "Rue D\u00e9noyez", "streetaddress": "Rue D\u00e9noyez", "postalcode": 75020, "department": "Paris", "region": "\u00cele-de-France", "latitude": 48.871668, "longitude": 2.378529}, {"_id": "652155b20d26ec3ff8504417", "identifier": "39f704ee-5a3c-c24e-473b-57236f945506", "label": "Les Caves du Louvre", "streetaddress": "52 rue de l\u2019Arbre Sec", "postalcode": 75001, "department": "Paris", "region": "\u00cele-de-France", "latitude": 48.8609185, "longitude": 2.3426595999999336}, {"_id": "652155b20d26ec3ff8504418", "identifier": "aef18679-2d31-c060-8ad7-501ba33aaa8f", "label": "\u00c9glise Notre-Dame de Lorette", "streetaddress": "18 bis rue de Ch\u00e2teaudun", "postalcode": 75009, "department": "Paris", "region": "\u00cele-de-France", "latitude": 48.8759519, "longitude": 2.3390644999999495}, {"_id": "652155b20d26ec3ff8504419", "identifier": "696970", "label": "Panth\u00e9on", "streetaddress": "Place du Panth\u00e9on", "postalcode": 75005, "department": "Paris", "region": "\u00cele-de-France", "latitude": 48.846397, "longitude": 2.345197}, {"_id": "652155b20d26ec3ff850441a", "identifier": "db74c469-74d7-15de-1ac5-56123919f763", "label": "Galerie Kamel Mennour", "streetaddress": "47 rue Saint-Andr\u00e9-des-Arts", "postalcode": 75006, "department": "Paris", "region": "\u00cele-de-France", "latitude": 48.853283, "longitude": 2.3398491000000377}, {"_id": "652155b20d26ec3ff850441b", "identifier": "5342477", "label": "Cit\u00e9co - Cit\u00e9 de l'Economie", "streetaddress": "1 Place du G\u00e9n\u00e9ral Catroux", "postalcode": 75017, "department": "Paris", "region": "\u00cele-de-France", "latitude": 48.881957, "longitude": 2.31069}, {"_id": "652155b20d26ec3ff850441c", "identifier": "73a1d972-0462-16d7-08cf-501ba3d9bf46", "label": "Chapelle de la Sorbonne", "streetaddress": "Place de la Sorbonne", "postalcode": 75005, "department": "Paris", "region": "\u00cele-de-France", "latitude": 48.8485, "longitude": 2.34236999999996}, {"_id": "652155b20d26ec3ff850441d", "identifier": "d33d52cf-4b81-32e3-c318-501ba3596e57", "label": "La Halle Saint-Pierre", "streetaddress": "2 rue Ronsard", "postalcode": 75018, "department": "Paris", "region": "\u00cele-de-France", "latitude": 48.8848668, "longitude": 2.34420369999998}, {"_id": "652155b30d26ec3ff850441e", "identifier": "84dcc92c-0dc0-11e8-9507-0050569a22ea", "label": "Arboretum - Jardin botanique de Paris", "streetaddress": "50 route de la Pyramide - Bois de Vincennes", "postalcode": 75012, "department": "Paris", "region": "\u00cele-de-France", "latitude": 48.8223686, "longitude": 2.4586199999999963}, {"_id": "652155b30d26ec3ff850441f", "identifier": "68a6f1f6-d18e-6ef9-676b-501ba321f14b", "label": "Moulin de la Charit\u00e9 - Montparnasse", "streetaddress": "Cimeti\u00e8re du Montparnasse - 3 boulevard Edgard Quinet", "postalcode": 75014, "department": "Paris", "region": "\u00cele-de-France", "latitude": 48.8400076, "longitude": 2.327590099999952}, {"_id": "652155b30d26ec3ff8504420", "identifier": "16ea1a2d-2fe5-6299-09ed-501ba3328197", "label": "BiLiPo - Biblioth\u00e8que des Litt\u00e9ratures Polici\u00e8res", "streetaddress": "48 rue du Cardinal Lemoine", "postalcode": 75005, "department": "Paris", "region": "\u00cele-de-France", "latitude": 48.84644730000001, "longitude": 2.3512519999999313}, {"_id": "652155b30d26ec3ff8504421", "identifier": "c246309d-717a-284b-1a8c-501ba3d2a94d", "label": "Coll\u00e8ge des Bernardins", "streetaddress": "20 rue de Poissy", "postalcode": 75005, "department": "Paris", "region": "\u00cele-de-France", "latitude": 48.848704, "longitude": 2.352249400000005}, {"_id": "652155b30d26ec3ff8504422", "identifier": "682669", "label": "Institut du monde arabe", "streetaddress": "1 rue des Foss\u00e9s Saint-Bernard", "postalcode": 75005, "department": "Paris", "region": "\u00cele-de-France", "latitude": 48.849302, "longitude": 2.356099}, {"_id": "652155b30d26ec3ff8504423", "identifier": "705696", "label": "Mus\u00e9e national de l'histoire de l'immigration - Palais de la Porte Dor\u00e9e", "streetaddress": "293 avenue Daumesnil", "postalcode": 75012, "department": "Paris", "region": "\u00cele-de-France", "latitude": 48.835301, "longitude": 2.409409}, {"_id": "652155b30d26ec3ff8504424", "identifier": "3fdcfc11-8442-b4e7-37ea-501ba35d0d04", "label": "Th\u00e9\u00e2tre et Galerie de Nesle", "streetaddress": "8 rue de Nesle", "postalcode": 75006, "department": "Paris", "region": "\u00cele-de-France", "latitude": 48.8553202, "longitude": 2.338769100000036}, {"_id": "652155b30d26ec3ff8504425", "identifier": "ba1ee476-b397-0122-f54b-501ba3958bb0", "label": "Basilique Notre-Dame du Perp\u00e9tuel Secours", "streetaddress": "55 boulevard de M\u00e9nilmontant", "postalcode": 75011, "department": "Paris", "region": "\u00cele-de-France", "latitude": 48.8619466, "longitude": 2.387654600000019}, {"_id": "652155b30d26ec3ff8504426", "identifier": "704323", "label": "Mus\u00e9e de l'Orangerie", "streetaddress": "Jardin des Tuileries", "postalcode": 75001, "department": "Paris", "region": "\u00cele-de-France", "latitude": 48.863915, "longitude": 2.322602}, {"_id": "652155b30d26ec3ff8504427", "identifier": "6546728", "label": "Galerie de la Madeleine", "streetaddress": "9 place de la Madeleine", "postalcode": 75008, "department": "Paris", "region": "\u00cele-de-France", "latitude": 48.869615, "longitude": 2.323165}, {"_id": "652155b30d26ec3ff8504428", "identifier": "4679111", "label": "Cath\u00e9drale Notre-Dame de Paris", "streetaddress": "6 Parvis Notre-Dame", "postalcode": 75004, "department": "Paris", "region": "\u00cele-de-France", "latitude": 48.85267, "longitude": 2.349292}, {"_id": "652155b30d26ec3ff8504429", "identifier": "5936147", "label": "La Philharmonie des enfants", "streetaddress": "221 avenue Jean-Jaur\u00e8s", "postalcode": 75019, "department": "Paris", "region": "\u00cele-de-France", "latitude": 48.889892, "longitude": 2.393882}, {"_id": "652155b30d26ec3ff850442a", "identifier": "7a3f561b-e836-bb9b-5c14-50ec30f1b1da", "label": "March\u00e9 Jean Jaur\u00e8s", "streetaddress": "185 avenue Jean Jaur\u00e8s", "postalcode": 75019, "department": "Paris", "region": "\u00cele-de-France", "latitude": 48.8877956, "longitude": 2.38925549999999}, {"_id": "652155b30d26ec3ff850442b", "identifier": "b6328efe-714e-11eb-b59a-0050569afc27", "label": "Galerie Perrotin Matignon", "streetaddress": "2 bis avenue Matignon", "postalcode": 75008, "department": "Paris", "region": "\u00cele-de-France", "latitude": 48.8700957, "longitude": 2.3127753}, {"_id": "652155b30d26ec3ff850442c", "identifier": "696760", "label": "Basilique du Sacr\u00e9 Coeur de Montmartre", "streetaddress": "35 rue du Chevalier de la Barre", "postalcode": 75018, "department": "Paris", "region": "\u00cele-de-France", "latitude": 48.886364, "longitude": 2.343031}, {"_id": "652155b30d26ec3ff850442d", "identifier": "4644987", "label": "Le Centre Pompidou en famille", "streetaddress": "Place Georges Pompidou", "postalcode": 75004, "department": "Paris", "region": "\u00cele-de-France", "latitude": 48.860713, "longitude": 2.352254}, {"_id": "652155b30d26ec3ff850442e", "identifier": "744c81ce-a9c1-11eb-81ff-0050569afc27", "label": "Immeuble-cath\u00e9drale de la rue R\u00e9aumur", "streetaddress": "63 rue R\u00e9aumur", "postalcode": 75002, "department": "Paris", "region": "\u00cele-de-France", "latitude": 48.866488, "longitude": 2.3506334}, {"_id": "652155b30d26ec3ff850442f", "identifier": "816308", "label": "Jardins Rosa Luxemburg", "streetaddress": "63 quater rue Riquet", "postalcode": 75018, "department": "Paris", "region": "\u00cele-de-France", "latitude": 48.88991, "longitude": 2.36415}, {"_id": "652155b30d26ec3ff8504430", "identifier": "704443", "label": "Mus\u00e9e Carnavalet - Histoire de Paris", "streetaddress": "23 rue de S\u00e9vign\u00e9", "postalcode": 75003, "department": "Paris", "region": "\u00cele-de-France", "latitude": 48.85712, "longitude": 2.362411}, {"_id": "652155b30d26ec3ff8504431", "identifier": "5940865", "label": "Les \u00c9tincelles du Palais de la d\u00e9couverte", "streetaddress": "186 rue Saint Charles", "postalcode": 75015, "department": "Paris", "region": "\u00cele-de-France", "latitude": 48.8409, "longitude": 2.279348}, {"_id": "652155b30d26ec3ff8504432", "identifier": "704209", "label": "Jeu de Paume", "streetaddress": "1 place de la Concorde", "postalcode": 75001, "department": "Paris", "region": "\u00cele-de-France", "latitude": 48.867594, "longitude": 2.322308}, {"_id": "652155b30d26ec3ff8504433", "identifier": "b8beb81d-0a57-3b08-54af-588716aaf8f4", "label": "H\u00f4tel de Brienne - Minist\u00e8re de la D\u00e9fense", "streetaddress": "14 rue Saint-Dominique", "postalcode": 75007, "department": "Paris", "region": "\u00cele-de-France", "latitude": 48.8598583, "longitude": 2.31949110000005}, {"_id": "652155b30d26ec3ff8504434", "identifier": "d7a0c0c5-d5b1-4581-702a-501ba3ea2bb3", "label": "Fondation Cartier pour l'art contemporain", "streetaddress": "261 boulevard Raspail", "postalcode": 75014, "department": "Paris", "region": "\u00cele-de-France", "latitude": 48.83654910193549, "longitude": 2.331750573016393}, {"_id": "652155b30d26ec3ff8504435", "identifier": "d51e3ef2-f5a4-98ed-99c4-51ffc7430799", "label": "Galerie V\u00e9ro-Dodat", "streetaddress": "19 rue Jean-Jacques Rousseau", "postalcode": 75001, "department": "Paris", "region": "\u00cele-de-France", "latitude": 48.8627368, "longitude": 2.3408847000000605}, {"_id": "652155b30d26ec3ff8504436", "identifier": "450a05d6-3300-16ef-31bb-501ba30c1997", "label": "Mus\u00e9e de la franc-ma\u00e7onnerie", "streetaddress": "Si\u00e8ge du Grand Orient de France - 16 rue Cadet", "postalcode": 75009, "department": "Paris", "region": "\u00cele-de-France", "latitude": 48.8749973, "longitude": 2.3430472999999665}, {"_id": "652155b30d26ec3ff8504437", "identifier": "24fea54e-1ebe-02ef-cef4-501ba32d3ed3", "label": "Temple du Port-Royal", "streetaddress": "18 boulevard Arago", "postalcode": 75013, "department": "Paris", "region": "\u00cele-de-France", "latitude": 48.8361337, "longitude": 2.3490979000000607}, {"_id": "652155b30d26ec3ff8504438", "identifier": "7eb6bce4-681d-11df-ccbc-501ba3493cbf", "label": "\u00c9glise Saint-Germain l'Auxerrois", "streetaddress": "2 place du Louvre", "postalcode": 75001, "department": "Paris", "region": "\u00cele-de-France", "latitude": 48.8598493, "longitude": 2.340979299999958}, {"_id": "652155b30d26ec3ff8504439", "identifier": "782977", "label": "Jardin du Port de l'Arsenal", "streetaddress": "53 Boulevard de la Bastille", "postalcode": 75012, "department": "Paris", "region": "\u00cele-de-France", "latitude": 48.849707, "longitude": 2.367865}, {"_id": "652155b30d26ec3ff850443a", "identifier": "700946", "label": "Mus\u00e9e du Louvre", "streetaddress": "Mus\u00e9e du Louvre", "postalcode": 75058, "department": "Paris", "region": "\u00cele-de-France", "latitude": 48.861347, "longitude": 2.335457}, {"_id": "652155b30d26ec3ff850443b", "identifier": "869676", "label": "Mus\u00e9e Maillol", "streetaddress": "61 rue de Grenelle", "postalcode": 75007, "department": "Paris", "region": "\u00cele-de-France", "latitude": 48.854735, "longitude": 2.324841}, {"_id": "652155b30d26ec3ff850443c", "identifier": "270ede99-0eee-3ba3-01e8-501ba3ea1e65", "label": "Temple Sri Manika Vinayakar Alayam - Temple de Ganesh", "streetaddress": "17 rue Pajol", "postalcode": 75018, "department": "Paris", "region": "\u00cele-de-France", "latitude": 48.8859193, "longitude": 2.360830999999962}, {"_id": "652155b30d26ec3ff850443d", "identifier": "3bb744ac-9719-cdc9-e070-50ebff09fcbb", "label": "March\u00e9 Aguesseau", "streetaddress": "Place de la Madeleine", "postalcode": 75008, "department": "Paris", "region": "\u00cele-de-France", "latitude": 48.8700777, "longitude": 2.3240069999999378}, {"_id": "652155b30d26ec3ff850443e", "identifier": "64c9036d-647a-5475-e414-501ba31b8f76", "label": "M\u00e9morial arm\u00e9nien", "streetaddress": "Place du Canada", "postalcode": 75008, "department": "Paris", "region": "\u00cele-de-France", "latitude": 48.864779, "longitude": 2.310354400000051}, {"_id": "652155b30d26ec3ff850443f", "identifier": "2c3e0c40-b2b3-3f4d-b9ee-501ba38e1759", "label": "Grande Synagogue de Paris", "streetaddress": "44 rue de la Victoire", "postalcode": 75009, "department": "Paris", "region": "\u00cele-de-France", "latitude": 48.8751943, "longitude": 2.3361955000000307}, {"_id": "652155b30d26ec3ff8504440", "identifier": "93c7a48d-eeaa-a448-5819-501ba3b83c43", "label": "Parc des Buttes-Chaumont", "streetaddress": "1-7 rue Botzaris", "postalcode": 75019, "department": "Paris", "region": "\u00cele-de-France", "latitude": 48.8769645, "longitude": 2.3811313999999584}, {"_id": "652155b30d26ec3ff8504441", "identifier": "11921f1b-90aa-6935-1c83-501ba3679146", "label": "La Cit\u00e9 de la Mode et du Design", "streetaddress": "34 quai d'Austerlitz", "postalcode": 75013, "department": "Paris", "region": "\u00cele-de-France", "latitude": 48.8402824, "longitude": 2.3701392000000396}, {"_id": "652155b30d26ec3ff8504442", "identifier": "223002fd-4d45-0694-7648-501ba3fcf67a", "label": "Les Grandes Serres du Jardin des plantes - Mus\u00e9um national d'histoire naturelle", "streetaddress": "Place Valhubert", "postalcode": 75005, "department": "Paris", "region": "\u00cele-de-France", "latitude": 48.8442257, "longitude": 2.3640336999999363}, {"_id": "652155b30d26ec3ff8504443", "identifier": "7c53beed-7c9e-9ffc-a298-501ba3348906", "label": "Artcurial", "streetaddress": "7 rond-point des Champs-\u00c9lys\u00e9es", "postalcode": 75008, "department": "Paris", "region": "\u00cele-de-France", "latitude": 48.8685678, "longitude": 2.3092741000000387}, {"_id": "652155b30d26ec3ff8504444", "identifier": "678609", "label": "Mus\u00e9e gourmand du chocolat - Choco-Story", "streetaddress": "28, boulevard Bonne Nouvelle", "postalcode": 75010, "department": "Paris", "region": "\u00cele-de-France", "latitude": 48.870293, "longitude": 2.350332}, {"_id": "652155b30d26ec3ff8504445", "identifier": "3cc45896-a1ef-11eb-ade1-0050569afc27", "label": "Porte Saint-Martin", "streetaddress": "Boulevard Saint-Martin", "postalcode": 75010, "department": "Paris", "region": "\u00cele-de-France", "latitude": 48.86914585, "longitude": 2.355651470716479}, {"_id": "652155b30d26ec3ff8504446", "identifier": "911f76dc-7e8a-11ec-b5b2-0050569afc27", "label": "Sobering Galerie", "streetaddress": "87 rue de Turenne", "postalcode": 75003, "department": "Paris", "region": "\u00cele-de-France", "latitude": 48.8606743, "longitude": 2.364475}, {"_id": "652155b30d26ec3ff8504447", "identifier": "699592", "label": "Mus\u00e9e Jacquemart-Andr\u00e9", "streetaddress": "158 boulevard Haussmann", "postalcode": 75008, "department": "Paris", "region": "\u00cele-de-France", "latitude": 48.875026, "longitude": 2.310732}, {"_id": "652155b30d26ec3ff8504448", "identifier": "96594311-d9b4-257d-f16d-501ba4b728b2", "label": "March\u00e9 Raspail", "streetaddress": "Boulevard Raspail - Entre les rues du Cherche-Midi et de Rennes", "postalcode": 75006, "department": "Paris", "region": "\u00cele-de-France", "latitude": 48.84910214969278, "longitude": 2.3276098317383003}, {"_id": "652155b30d26ec3ff8504449", "identifier": "3e6c7885-bdc4-74b4-9db7-59158f3b2013", "label": "Villette Makerz by WoMa", "streetaddress": "Folie L5 - Parc de la Villette - 211 avenue Jean Jaur\u00e8s", "postalcode": 75019, "department": "Paris", "region": "\u00cele-de-France", "latitude": 48.8905882, "longitude": 2.391740700000014}, {"_id": "652155b30d26ec3ff850444a", "identifier": "867c0736-17e0-59a6-1da1-501ba31d51a4", "label": "The Pagoda Paris", "streetaddress": "48 rue de Courcelles", "postalcode": 75008, "department": "Paris", "region": "\u00cele-de-France", "latitude": 48.8767037, "longitude": 2.307716400000004}, {"_id": "652155b30d26ec3ff850444b", "identifier": "815166", "label": "Jardin d'Agronomie Tropicale", "streetaddress": "45 bis avenue de la Belle-Gabrielle", "postalcode": 75012, "department": "Paris", "region": "\u00cele-de-France", "latitude": 48.834124, "longitude": 2.469126}, {"_id": "652155b40d26ec3ff850444c", "identifier": "e9318420-3983-6151-96bf-501ba3378fe4", "label": "M\u00e9morial des Martyrs de la D\u00e9portation", "streetaddress": "Square de l'\u00cele de France - 7 quai de l'Archev\u00each\u00e9", "postalcode": 75004, "department": "Paris", "region": "\u00cele-de-France", "latitude": 48.851855, "longitude": 2.3517590000000155}, {"_id": "652155b40d26ec3ff850444d", "identifier": "a59e2a45-6b4b-e328-371e-501ba3035c05", "label": "Mus\u00e9e de Cluny \u2013 mus\u00e9e national du Moyen \u00c2ge", "streetaddress": "28 rue du Sommerard", "postalcode": 75005, "department": "Paris", "region": "\u00cele-de-France", "latitude": 48.8503611, "longitude": 2.3447406999999885}, {"_id": "652155b40d26ec3ff850444e", "identifier": "705742", "label": "Galeries nationales du Grand Palais", "streetaddress": "3 avenue du G\u00e9n\u00e9ral Eisenhower", "postalcode": 75008, "department": "Paris", "region": "\u00cele-de-France", "latitude": 48.8659, "longitude": 2.313395}, {"_id": "652155b40d26ec3ff850444f", "identifier": "785250", "label": "Mus\u00e9e de la franc-ma\u00e7onnerie", "streetaddress": "16 rue Cadet", "postalcode": 75009, "department": "Paris", "region": "\u00cele-de-France", "latitude": 48.874783, "longitude": 2.343372}, {"_id": "652155b40d26ec3ff8504450", "identifier": "815092", "label": "Square Ren\u00e9-Viviani", "streetaddress": "2 rue du Fouarre", "postalcode": 75005, "department": "Paris", "region": "\u00cele-de-France", "latitude": 48.851682, "longitude": 2.347669}, {"_id": "652155b40d26ec3ff8504451", "identifier": "e69e0c8d-1a88-149a-3de5-5513c54ce4e9", "label": "Chapelle Saint-Patrick", "streetaddress": "Coll\u00e8ge des Irlandais - 5 rue des Irlandais", "postalcode": 75005, "department": "Paris", "region": "\u00cele-de-France", "latitude": 48.844219, "longitude": 2.346000199999935}, {"_id": "652155b40d26ec3ff8504452", "identifier": "9ceffda7-ba04-1414-568f-501ba4c9b8d9", "label": "March\u00e9 Bastille", "streetaddress": "Boulevard Richard Lenoir", "postalcode": 75011, "department": "Paris", "region": "\u00cele-de-France", "latitude": 48.85686161154542, "longitude": 2.3703128206238944}, {"_id": "652155b40d26ec3ff8504453", "identifier": "a0964d5e-b71e-b5d4-f027-501ba31a1ff1", "label": "Parc du Champ-de-Mars", "streetaddress": "Quai Branly - Avenue de la Motte Picquet", "postalcode": 75007, "department": "Paris", "region": "\u00cele-de-France", "latitude": 48.8556958, "longitude": 2.298463999999967}, {"_id": "652155b40d26ec3ff8504454", "identifier": "20c6d688-a9c8-11eb-b40a-0050569afc27", "label": "Maison de Nicolas Flamel", "streetaddress": "51 rue de Montmorency", "postalcode": 75003, "department": "Paris", "region": "\u00cele-de-France", "latitude": 48.8635382, "longitude": 2.353139675682307}, {"_id": "652155b40d26ec3ff8504455", "identifier": "57dc1043-44b6-76f5-d332-501ba354d94a", "label": "Mus\u00e9e de la Lib\u00e9ration de Paris - Mus\u00e9e du g\u00e9n\u00e9ral Leclerc - Mus\u00e9e Jean Moulin", "streetaddress": "4 avenue du Colonel Henri Rol-Tanguy", "postalcode": 75014, "department": "Paris", "region": "\u00cele-de-France", "latitude": 48.83417499999999, "longitude": 2.33266679999997}, {"_id": "652155b40d26ec3ff8504456", "identifier": "1559c290-0eb3-3d77-523b-501ba35ab345", "label": "Colonne Vend\u00f4me", "streetaddress": "Place Vend\u00f4me", "postalcode": 75001, "department": "Paris", "region": "\u00cele-de-France", "latitude": 48.8674885, "longitude": 2.329244399999993}, {"_id": "652155b40d26ec3ff8504457", "identifier": "2533c1d8-a534-11eb-b1c0-0050569afc27", "label": "La Ferme du Rail", "streetaddress": "2 bis rue de l'Ourcq", "postalcode": 75019, "department": "Paris", "region": "\u00cele-de-France", "latitude": 48.887699299999994, "longitude": 2.385147497929176}, {"_id": "652155b40d26ec3ff8504458", "identifier": "7f53999a-d82b-3458-e36f-561233e48e42", "label": "Galerie Perrotin Marais", "streetaddress": "76 rue de Turenne", "postalcode": 75003, "department": "Paris", "region": "\u00cele-de-France", "latitude": 48.86053039999999, "longitude": 2.3646095999999943}, {"_id": "652155b40d26ec3ff8504459", "identifier": "a111bb23-999d-5974-68db-52cd760bec31", "label": "Jardin de Rohan", "streetaddress": "H\u00f4tels de Soubise et de Rohan - 60 rue des Francs Bourgeois", "postalcode": 75003, "department": "Paris", "region": "\u00cele-de-France", "latitude": 48.8599734, "longitude": 2.3572368999999753}, {"_id": "652155b40d26ec3ff850445a", "identifier": "afefd1c6-67a1-feb6-77e1-501ba39b330c", "label": "Square Louise Michel", "streetaddress": "6 place Saint-Pierre", "postalcode": 75018, "department": "Paris", "region": "\u00cele-de-France", "latitude": 48.8855115, "longitude": 2.3437152000000196}, {"_id": "652155b40d26ec3ff850445b", "identifier": "5a6f1fa7-bb89-ad18-938e-501ba3410e00", "label": "Biblioth\u00e8que Publique d'Information - BPI", "streetaddress": "Centre Pompidou - Rue Beaubourg", "postalcode": 75004, "department": "Paris", "region": "\u00cele-de-France", "latitude": 48.8612422, "longitude": 2.3533371999999417}, {"_id": "652155b40d26ec3ff850445c", "identifier": "0a2e2aa2-c872-11eb-a5a9-0050569afc27", "label": "\u00c9glise Saint Bernard de la Chapelle", "streetaddress": "11 rue Affre", "postalcode": 75018, "department": "Paris", "region": "\u00cele-de-France", "latitude": 48.8860492, "longitude": 2.354978400418246}, {"_id": "652155b40d26ec3ff850445d", "identifier": "e530012e-c26d-453b-dc7d-501ba3269ffd", "label": "Cit\u00e9 Internationale des Arts", "streetaddress": "18 rue de l'H\u00f4tel de Ville", "postalcode": 75004, "department": "Paris", "region": "\u00cele-de-France", "latitude": 48.8539539, "longitude": 2.3572163999999702}, {"_id": "652155b40d26ec3ff850445e", "identifier": "681466", "label": "Galerie des Enfants", "streetaddress": "36 rue Geoffroy-Saint-Hilaire", "postalcode": 75005, "department": "Paris", "region": "\u00cele-de-France", "latitude": 48.842201, "longitude": 2.356197}, {"_id": "652155b40d26ec3ff850445f", "identifier": "817065", "label": "L'\u00eele aux cygnes", "streetaddress": "\u00eele aux cygnes, pont de grenelle - pont Bir-Hakeim", "postalcode": 75015, "department": "Paris", "region": "\u00cele-de-France", "latitude": 48.851667, "longitude": 2.281944}, {"_id": "652155b40d26ec3ff8504460", "identifier": "94631c39-6bc2-6716-e7de-501ba394f410", "label": "Galerie Hopkings", "streetaddress": "2 avenue Matigon", "postalcode": 75008, "department": "Paris", "region": "\u00cele-de-France", "latitude": 48.8699634, "longitude": 2.3120535000000473}, {"_id": "652155b40d26ec3ff8504461", "identifier": "817184", "label": "Jardins de l'Archipel des Berges de Seine Niki de Saint Phalle", "streetaddress": "Quai d'Orsay", "postalcode": 75007, "department": "Paris", "region": "\u00cele-de-France", "latitude": 48.862986, "longitude": 2.305477}, {"_id": "652155b40d26ec3ff8504462", "identifier": "3ca19d00-9302-5a8d-d6b0-50ec1c038627", "label": "March\u00e9 couvert Batignolles", "streetaddress": "96 bis rue Lemercier", "postalcode": 75017, "department": "Paris", "region": "\u00cele-de-France", "latitude": 48.889496, "longitude": 2.3189310000000205}, {"_id": "652155b40d26ec3ff8504463", "identifier": "678511", "label": "Cit\u00e9 des Sciences et de l'Industrie", "streetaddress": "30 avenue Corentin Cariou", "postalcode": 75019, "department": "Paris", "region": "\u00cele-de-France", "latitude": 48.895724, "longitude": 2.388256}, {"_id": "652155b40d26ec3ff8504464", "identifier": "bd28b6e5-d3c7-2f2e-82e2-501ba32238f9", "label": "Paroisse Saint-Antoine des Quinze-Vingts", "streetaddress": "66 avenue Ledru-Rollin", "postalcode": 75012, "department": "Paris", "region": "\u00cele-de-France", "latitude": 48.8490055, "longitude": 2.3735494000000017}, {"_id": "652155b40d26ec3ff8504465", "identifier": "4720806", "label": "Studio Lego\u00ae a la Cit\u00e9 des sciences et de l'industrie", "streetaddress": "30 avenue Corentin Cariou", "postalcode": 75019, "department": "Paris", "region": "\u00cele-de-France", "latitude": 48.895668, "longitude": 2.388146}, {"_id": "652155b40d26ec3ff8504466", "identifier": "a0bb2d64-5e2e-97c0-b8c2-501ba3b0b140", "label": "MAD - Mus\u00e9e des Arts D\u00e9coratifs", "streetaddress": "107 rue de Rivoli", "postalcode": 75001, "department": "Paris", "region": "\u00cele-de-France", "latitude": 48.863172740189896, "longitude": 2.333555797980711}, {"_id": "652155b40d26ec3ff8504467", "identifier": "697405", "label": "La Nef du Grand Palais", "streetaddress": "Avenue Winston Churchill", "postalcode": 75008, "department": "Paris", "region": "\u00cele-de-France", "latitude": 48.866119, "longitude": 2.313314}, {"_id": "652155b40d26ec3ff8504468", "identifier": "8dbf25cd-9659-7141-ad56-501ba345a073", "label": "Le Village Saint-Paul - Le Marais", "streetaddress": "Rue Saint-Paul", "postalcode": 75004, "department": "Paris", "region": "\u00cele-de-France", "latitude": 48.853394755443745, "longitude": 2.3605824318771056}, {"_id": "652155b40d26ec3ff8504469", "identifier": "6946f737-5e2d-6e5a-8649-501ba3fb0574", "label": "\u00c9glise Saint-Joseph des \u00c9pinettes", "streetaddress": "40 rue Pouchet", "postalcode": 75017, "department": "Paris", "region": "\u00cele-de-France", "latitude": 48.8938722, "longitude": 2.320339699999977}, {"_id": "652155b40d26ec3ff850446a", "identifier": "6ec5775a-da71-4dbc-6936-501ba3502760", "label": "Mus\u00e9e de Min\u00e9ralogie", "streetaddress": "MINES ParisTech - 60 boulevard Saint-Michel", "postalcode": 75006, "department": "Paris", "region": "\u00cele-de-France", "latitude": 48.8454821, "longitude": 2.339789699999983}, {"_id": "652155b40d26ec3ff850446b", "identifier": "9f981819-7352-12a6-7d51-50ec19c45b76", "label": "March\u00e9 Mouton-Duvernet", "streetaddress": "Place Jacques Demy", "postalcode": 75014, "department": "Paris", "region": "\u00cele-de-France", "latitude": 48.8318034, "longitude": 2.327089200000046}, {"_id": "652155b40d26ec3ff850446c", "identifier": "9e9ee8f0-777f-11eb-aa18-0050569afc27", "label": "La Ruche - Cit\u00e9 d'artistes", "streetaddress": "2 passage Dantzig", "postalcode": 75015, "department": "Paris", "region": "\u00cele-de-France", "latitude": 48.83208465576172, "longitude": 2.2968780994415283}, {"_id": "652155b40d26ec3ff850446d", "identifier": "4015bc07-fa94-9a80-1b4b-501ba34e421c", "label": "Mus\u00e9e Carnavalet - Histoire de Paris", "streetaddress": "23 rue de S\u00e9vign\u00e9", "postalcode": 75003, "department": "Paris", "region": "\u00cele-de-France", "latitude": 48.857, "longitude": 2.362859999999955}, {"_id": "652155b40d26ec3ff850446e", "identifier": "9c1da940-06ea-0ba0-d12e-501ba49f7f32", "label": "March\u00e9 couvert Saint-Quentin", "streetaddress": "85 bis boulevard Magenta", "postalcode": 75010, "department": "Paris", "region": "\u00cele-de-France", "latitude": 48.8770778, "longitude": 2.3553225000000566}, {"_id": "652155b40d26ec3ff850446f", "identifier": "4d800ed3-4651-7e6b-b9ff-501ba36b6581", "label": "Cit\u00e9 des Fleurs", "streetaddress": "Cit\u00e9 des Fleurs - Quartier des \u00c9pinettes", "postalcode": 75017, "department": "Paris", "region": "\u00cele-de-France", "latitude": 48.8926143, "longitude": 2.3203252000000703}, {"_id": "652155b40d26ec3ff8504470", "identifier": "6a122f78-a43b-11eb-ba73-0050569afc27", "label": "H\u00f4tel de Polignac", "streetaddress": "1 rue du Pasteur Marc Boegner", "postalcode": 75116, "department": "Paris", "region": "\u00cele-de-France", "latitude": 48.86318965, "longitude": 2.2816200087702394}, {"_id": "652155b40d26ec3ff8504471", "identifier": "83050078-af93-856e-e257-501ba3cf0361", "label": "\u00c9glise r\u00e9form\u00e9e d'Auteuil", "streetaddress": "53 rue Erlanger", "postalcode": 75016, "department": "Paris", "region": "\u00cele-de-France", "latitude": 48.84445059999999, "longitude": 2.260267200000044}, {"_id": "652155b40d26ec3ff8504472", "identifier": "4613660", "label": "Les Serres du Parc Andr\u00e9 Citro\u00ebn", "streetaddress": "2 rue Cauchy", "postalcode": 75015, "department": "Paris", "region": "\u00cele-de-France", "latitude": 48.843288, "longitude": 2.275243}, {"_id": "652155b40d26ec3ff8504473", "identifier": "e30309ab-183c-2b3e-660c-501ba3fad3b3", "label": "Biblioth\u00e8que Nationale de France - Arsenal", "streetaddress": "1 rue de Sully", "postalcode": 75004, "department": "Paris", "region": "\u00cele-de-France", "latitude": 48.8506641, "longitude": 2.362552400000027}, {"_id": "652155b40d26ec3ff8504474", "identifier": "c26999c2-5fb6-a380-b76d-501ba309eda5", "label": "Mus\u00e9e en herbe", "streetaddress": "23 rue de L'Arbre-Sec", "postalcode": 75001, "department": "Paris", "region": "\u00cele-de-France", "latitude": 48.86011629999999, "longitude": 2.3421441000000414}, {"_id": "652155b40d26ec3ff8504475", "identifier": "2cc78b46-f5e3-e5a9-c016-501ba354a21c", "label": "Mus\u00e9e Jacquemart-Andr\u00e9", "streetaddress": "158 boulevard Haussmann", "postalcode": 75008, "department": "Paris", "region": "\u00cele-de-France", "latitude": 48.8750259, "longitude": 2.3107324000000062}, {"_id": "652155b40d26ec3ff8504476", "identifier": "3a1b48f1-aec8-3599-968d-501ba3d752e7", "label": "Mus\u00e9e du Louvre", "streetaddress": "Pyramide du Louvre", "postalcode": 75001, "department": "Paris", "region": "\u00cele-de-France", "latitude": 48.86059909999999, "longitude": 2.337622499999952}, {"_id": "652155b40d26ec3ff8504477", "identifier": "711567", "label": "Mus\u00e9e de la L\u00e9gion d'honneur et des ordres de chevalerie", "streetaddress": "2 rue de la L\u00e9gion d'Honneur", "postalcode": 75007, "department": "Paris", "region": "\u00cele-de-France", "latitude": 48.860323, "longitude": 2.324612}, {"_id": "652155b40d26ec3ff8504478", "identifier": "df22276f-3f15-81f4-3e10-501ba4507a85", "label": "March\u00e9 couvert Saint-Martin", "streetaddress": "31-33 rue du Ch\u00e2teau d'Eau", "postalcode": 75010, "department": "Paris", "region": "\u00cele-de-France", "latitude": 48.8712557, "longitude": 2.3581771000000344}, {"_id": "652155b40d26ec3ff8504479", "identifier": "782410", "label": "Jardin Atlantique", "streetaddress": "1 Place des 5 Marthyr du Lyc\u00e9e Buffon", "postalcode": 75015, "department": "Paris", "region": "\u00cele-de-France", "latitude": 48.839848, "longitude": 2.318813}, {"_id": "652155b50d26ec3ff850447a", "identifier": "92c97aed-63b9-c0b6-8076-501ba3a3e642", "label": "The American Church in Paris", "streetaddress": "65 quai d'Orsay", "postalcode": 75007, "department": "Paris", "region": "\u00cele-de-France", "latitude": 48.8623153, "longitude": 2.306699500000036}, {"_id": "652155b50d26ec3ff850447b", "identifier": "29dee3d1-da34-2979-031a-501ba35322ae", "label": "La Galerie d'architecture", "streetaddress": "11 rue des Blancs Manteaux", "postalcode": 75004, "department": "Paris", "region": "\u00cele-de-France", "latitude": 48.8585821, "longitude": 2.357866000000058}, {"_id": "652155b50d26ec3ff850447c", "identifier": "ef93c8a7-702f-9d75-0479-501ba3250795", "label": "\u00c9glise Saint-Louis-en-l'\u00cele", "streetaddress": "19 bis rue Saint-Louis-en-l'\u00cele", "postalcode": 75004, "department": "Paris", "region": "\u00cele-de-France", "latitude": 48.8512262, "longitude": 2.3581662999999935}, {"_id": "652155b50d26ec3ff850447d", "identifier": "6547952", "label": "Passage Brady", "streetaddress": "46 rue du Faubourg Saint-Denis", "postalcode": 75010, "department": "Paris", "region": "\u00cele-de-France", "latitude": 48.871601, "longitude": 2.353784}, {"_id": "652155b50d26ec3ff850447e", "identifier": "b49fbff0-7d63-687c-f330-501ba36e17cf", "label": "Bois de Boulogne", "streetaddress": "Bois de Boulogne", "postalcode": 75016, "department": "Paris", "region": "\u00cele-de-France", "latitude": 48.8624492, "longitude": 2.249166800000012}, {"_id": "652155b50d26ec3ff850447f", "identifier": "693939", "label": "Mus\u00e9e Bourdelle", "streetaddress": "18, rue Antoine Bourdelle", "postalcode": 75015, "department": "Paris", "region": "\u00cele-de-France", "latitude": 48.843025, "longitude": 2.317659}, {"_id": "652155b50d26ec3ff8504480", "identifier": "9f54eac4-9d3b-f16b-a1d1-501ba3ee096f", "label": "Maison Auguste Comte", "streetaddress": "10 rue Monsieur le Prince", "postalcode": 75006, "department": "Paris", "region": "\u00cele-de-France", "latitude": 48.851067, "longitude": 2.3393998999999894}, {"_id": "652155b50d26ec3ff8504481", "identifier": "4770173", "label": "Cimeti\u00e8re de Montmartre", "streetaddress": "20, avenue Rachel", "postalcode": 75018, "department": "Paris", "region": "\u00cele-de-France", "latitude": 48.885887, "longitude": 2.331885}, {"_id": "652155b50d26ec3ff8504482", "identifier": "dd0bcd9b-878b-df3a-d7c2-52b9549103cd", "label": "\u00c9glise r\u00e9form\u00e9e du Marais", "streetaddress": "17 rue Saint-Antoine", "postalcode": 75004, "department": "Paris", "region": "\u00cele-de-France", "latitude": 48.8534665, "longitude": 2.3663795999999593}, {"_id": "652155b50d26ec3ff8504483", "identifier": "a8a8a465-bdc6-7511-7d2d-501ba3cf5ee3", "label": "Ch\u00e2teau de Bagatelle", "streetaddress": "Route de S\u00e8vres \u00e0 Neuilly - Bois de Boulogne", "postalcode": 75016, "department": "Paris", "region": "\u00cele-de-France", "latitude": 48.8702252, "longitude": 2.2459159999999656}, {"_id": "652155b50d26ec3ff8504484", "identifier": "a1e3d140-e3db-9a7d-f294-501ba4118b3a", "label": "March\u00e9 Daumesnil", "streetaddress": "Boulevard de Reuilly - Entre la rue de Charenton et la place F\u00e9lix \u00c9bou\u00e9", "postalcode": 75012, "department": "Paris", "region": "\u00cele-de-France", "latitude": 48.8393746, "longitude": 2.3944567999999435}, {"_id": "652155b50d26ec3ff8504485", "identifier": "6538667", "label": "Galerie V\u00e9ro-Dodat", "streetaddress": "19 rue Jean-Jacques Rousseau", "postalcode": 75001, "department": "Paris", "region": "\u00cele-de-France", "latitude": 48.862715, "longitude": 2.340788}, {"_id": "652155b50d26ec3ff8504486", "identifier": "b493c040-cea5-11eb-b648-0050569afc27", "label": "La Danse de la fontaine \u00e9mergente", "streetaddress": "Place Augusta Holmes", "postalcode": 75013, "department": "Paris", "region": "\u00cele-de-France", "latitude": 48.83921505, "longitude": 2.3706953489488596}, {"_id": "652155b50d26ec3ff8504487", "identifier": "61f4440f-5cba-e245-509d-501ba3398474", "label": "\u00c9glise Saint-Gervais Saint-Protais", "streetaddress": "13 rue des Barres", "postalcode": 75004, "department": "Paris", "region": "\u00cele-de-France", "latitude": 48.85551479999999, "longitude": 2.3547002999999904}, {"_id": "652155b50d26ec3ff8504488", "identifier": "700ec00b-3627-e51b-0725-501ba34654d1", "label": "Catacombes de Paris", "streetaddress": "1 avenue du Colonel Henri Rol-Tanguy", "postalcode": 75014, "department": "Paris", "region": "\u00cele-de-France", "latitude": 48.8336913, "longitude": 2.33199060000004}, {"_id": "652155b50d26ec3ff8504489", "identifier": "681546", "label": "Gr\u00e9vin Paris", "streetaddress": "10, Boulevard Montmartre", "postalcode": 75009, "department": "Paris", "region": "\u00cele-de-France", "latitude": 48.871792, "longitude": 2.342228}, {"_id": "652155b50d26ec3ff850448a", "identifier": "5b1c3d0a-0bf6-11ed-aa0a-0050569afc27", "label": "Jardin21", "streetaddress": "12/A rue Ella Fitzgerald", "postalcode": 75019, "department": "Paris", "region": "\u00cele-de-France", "latitude": 48.89677245896336, "longitude": 2.3956510615590627}, {"_id": "652155b50d26ec3ff850448b", "identifier": "0e0578fe-7b85-11eb-bf74-0050569afc27", "label": "Maison Gainsbourg", "streetaddress": "14 rue de Verneuil", "postalcode": 75007, "department": "Paris", "region": "\u00cele-de-France", "latitude": 48.8574245, "longitude": 2.331132}, {"_id": "652155b50d26ec3ff850448c", "identifier": "5ba67a4b-2a1b-ef72-c76c-501ba39f9095", "label": "Institut culturel italien", "streetaddress": "50 rue de Varenne", "postalcode": 75007, "department": "Paris", "region": "\u00cele-de-France", "latitude": 48.8543659, "longitude": 2.322402399999987}, {"_id": "652155b50d26ec3ff850448d", "identifier": "30b75126-3318-9ce8-e3a2-51ffc9e1017c", "label": "H\u00f4tel de Beauvais", "streetaddress": "68 rue Fran\u00e7ois Miron", "postalcode": 75004, "department": "Paris", "region": "\u00cele-de-France", "latitude": 48.8554798, "longitude": 2.35842439999999}, {"_id": "652155b50d26ec3ff850448e", "identifier": "73915269-6e1c-37cd-87d2-501ba37cc0bc", "label": "Le Moulin de Longchamp", "streetaddress": "Hippodrome de Longchamp - 2 route des Tribunes", "postalcode": 75016, "department": "Paris", "region": "\u00cele-de-France", "latitude": 48.8592759, "longitude": 2.229322599999932}, {"_id": "652155b50d26ec3ff850448f", "identifier": "d2e4091c-d277-11eb-9176-0050569afc27", "label": "March\u00e9 Brune", "streetaddress": "71 boulevard Brune - Impasse Vandal", "postalcode": 75014, "department": "Paris", "region": "\u00cele-de-France", "latitude": 48.8268636, "longitude": 2.3095342}, {"_id": "652155b50d26ec3ff8504490", "identifier": "801449", "label": "Square des ar\u00eanes de Lut\u00e8ce et square Capitan", "streetaddress": "4 rue des ar\u00eanes", "postalcode": 75005, "department": "Paris", "region": "\u00cele-de-France", "latitude": 48.845128, "longitude": 2.354246}, {"_id": "652155b50d26ec3ff8504491", "identifier": "bb88471b-a4ed-1d0f-ecf6-501ba34d0007", "label": "Mus\u00e9e des \u00e9gouts de Paris", "streetaddress": "Esplanade Habib Bourguiba", "postalcode": 75007, "department": "Paris", "region": "\u00cele-de-France", "latitude": 48.86250000000007, "longitude": 2.306060000000059}, {"_id": "652155b50d26ec3ff8504492", "identifier": "37688749-4197-9335-3dce-501ba3d3f14c", "label": "Gr\u00e9vin Paris", "streetaddress": "10 boulevard Montmartre", "postalcode": 75009, "department": "Paris", "region": "\u00cele-de-France", "latitude": 48.871838083967404, "longitude": 2.3422199979060685}, {"_id": "652155b50d26ec3ff8504493", "identifier": "9b522b97-7679-f77e-6c16-501ba34155c0", "label": "Collection de Min\u00e9raux - Sorbonne Universit\u00e9", "streetaddress": "UPMC - 4 place Jussieu", "postalcode": 75005, "department": "Paris", "region": "\u00cele-de-France", "latitude": 48.8442235, "longitude": 2.3448276000000305}, {"_id": "652155b50d26ec3ff8504494", "identifier": "33683fe9-7774-1d08-b983-577fb5fa0c28", "label": "Phono Museum Paris", "streetaddress": "53 boulevard de Rochechouart", "postalcode": 75009, "department": "Paris", "region": "\u00cele-de-France", "latitude": 48.88205689999999, "longitude": 2.3413645000000542}, {"_id": "652155b50d26ec3ff8504495", "identifier": "3deb05f7-fb49-dfde-256a-501ba3656b40", "label": "Temple de l'\u00e9glise protestante unie de Montparnasse-Plaisance", "streetaddress": "95 rue de l'Ouest", "postalcode": 75014, "department": "Paris", "region": "\u00cele-de-France", "latitude": 48.8345632, "longitude": 2.316560900000013}, {"_id": "652155b50d26ec3ff8504496", "identifier": "720cc44a-7781-11eb-a0f1-0050569afc27", "label": "Bateau-Lavoir - Cit\u00e9 d'artistes", "streetaddress": "13 place \u00c9mile Goudeau", "postalcode": 75018, "department": "Paris", "region": "\u00cele-de-France", "latitude": 48.88591384887695, "longitude": 2.338024139404297}, {"_id": "652155b50d26ec3ff8504497", "identifier": "a639cfe1-7b72-72a4-e966-501ba37c502d", "label": "Mus\u00e9e de la Vie romantique", "streetaddress": "H\u00f4tel Scheffer-Renan - 16 rue Chaptal", "postalcode": 75009, "department": "Paris", "region": "\u00cele-de-France", "latitude": 48.8810988, "longitude": 2.333447699999965}, {"_id": "652155b50d26ec3ff8504498", "identifier": "8ce00b0f-a687-9c57-a00a-501ba320b7a5", "label": "Mus\u00e9e du Barreau de Paris", "streetaddress": "25 rue du Jour", "postalcode": 75001, "department": "Paris", "region": "\u00cele-de-France", "latitude": 48.863986, "longitude": 2.345045300000038}, {"_id": "652155b50d26ec3ff8504499", "identifier": "3a0f0db7-c3c3-322d-3310-501ba37d200e", "label": "L'Atelier des peintres du Marais", "streetaddress": "72 rue Fran\u00e7ois Miron", "postalcode": 75004, "department": "Paris", "region": "\u00cele-de-France", "latitude": 48.8554114, "longitude": 2.358788499999946}, {"_id": "652155b50d26ec3ff850449a", "identifier": "6a022db5-09ed-4acd-d0f1-501ba323f5e0", "label": "Mus\u00e9e de la L\u00e9gion d\u2019honneur et des ordres de Chevalerie", "streetaddress": "2 rue de la L\u00e9gion d'honneur", "postalcode": 75007, "department": "Paris", "region": "\u00cele-de-France", "latitude": 48.8607764, "longitude": 2.325282199999947}, {"_id": "652155b50d26ec3ff850449b", "identifier": "2985ff81-bc75-af35-651a-501ba3dc34f1", "label": "Mus\u00e9e du quai Branly - Jacques Chirac", "streetaddress": "37 quai Jacques Chirac", "postalcode": 75007, "department": "Paris", "region": "\u00cele-de-France", "latitude": 48.861899, "longitude": 2.2974409999999352}, {"_id": "652155b50d26ec3ff850449c", "identifier": "705855", "label": "Mus\u00e9e de Montmartre - Jardins Renoir", "streetaddress": "12 rue Cortot", "postalcode": 75018, "department": "Paris", "region": "\u00cele-de-France", "latitude": 48.887702, "longitude": 2.340672}, {"_id": "652155b50d26ec3ff850449d", "identifier": "700d3535-1586-775b-6daa-501ba3a6860c", "label": "Crypte arch\u00e9ologique de l'Ile de la Cit\u00e9", "streetaddress": "7 parvis de Notre-Dame - Place Jean-Paul II", "postalcode": 75004, "department": "Paris", "region": "\u00cele-de-France", "latitude": 48.85365179999999, "longitude": 2.3477146000000175}, {"_id": "652155b50d26ec3ff850449e", "identifier": "801801", "label": "Jardin sauvage Saint Vincent", "streetaddress": "17 rue Saint Vincent", "postalcode": 75018, "department": "Paris", "region": "\u00cele-de-France", "latitude": 48.88838, "longitude": 2.341537}, {"_id": "652155b50d26ec3ff850449f", "identifier": "c1a26c7e-eec1-fb9b-fe61-501ba37965ec", "label": "\u00c9glise Saint-Germain-des-Pr\u00e9s", "streetaddress": "3 place Saint-Germain-des-Pr\u00e9s", "postalcode": 75006, "department": "Paris", "region": "\u00cele-de-France", "latitude": 48.8539755, "longitude": 2.3342595999999958}, {"_id": "652155b50d26ec3ff85044a0", "identifier": "1048018e-1e37-a34e-2ce8-501ba3fe244a", "label": "\u00c9glise Sainte-Anne de la Butte-aux-Cailles", "streetaddress": "188 rue de Tolbiac", "postalcode": 75013, "department": "Paris", "region": "\u00cele-de-France", "latitude": 48.8257086, "longitude": 2.3484329000000344}, {"_id": "652155b50d26ec3ff85044a1", "identifier": "6da0391c-1a29-fa80-2f5a-501ba336793e", "label": "Synagogue de la rue Pav\u00e9e", "streetaddress": "10 rue Pav\u00e9e", "postalcode": 75004, "department": "Paris", "region": "\u00cele-de-France", "latitude": 48.856061, "longitude": 2.36055429999999}, {"_id": "652155b50d26ec3ff85044a2", "identifier": "99aa6521-ae8d-559d-7baf-501ba4f51464", "label": "March\u00e9 biologique Brancusi", "streetaddress": "Place Constantin Brancusi", "postalcode": 75014, "department": "Paris", "region": "\u00cele-de-France", "latitude": 48.8372, "longitude": 2.3210000000000264}, {"_id": "652155b50d26ec3ff85044a3", "identifier": "daba074f-aaa4-514a-a7ba-501ba34b3ae9", "label": "Jardin sauvage Saint-Vincent", "streetaddress": "17 rue Saint-Vincent", "postalcode": 75018, "department": "Paris", "region": "\u00cele-de-France", "latitude": 48.8884951, "longitude": 2.3407781999999315}, {"_id": "652155b50d26ec3ff85044a4", "identifier": "4645737", "label": "Le Palais de Tokyo en famille", "streetaddress": "13 avenue du Pr\u00e9sident Wilson", "postalcode": 75016, "department": "Paris", "region": "\u00cele-de-France", "latitude": 48.864572, "longitude": 2.296371}, {"_id": "652155b50d26ec3ff85044a5", "identifier": "aa0e263f-3666-a05b-376d-501ba3812981", "label": "Le Mus\u00e9e du Fumeur", "streetaddress": "7 rue Pache", "postalcode": 75011, "department": "Paris", "region": "\u00cele-de-France", "latitude": 48.8586421, "longitude": 2.382357700000057}, {"_id": "652155b50d26ec3ff85044a6", "identifier": "907d007a-ba90-ef3d-42e9-501ba37a95b3", "label": "\u00c9glise protestante unie - La Rencontre", "streetaddress": "17 rue des Petits H\u00f4tels", "postalcode": 75010, "department": "Paris", "region": "\u00cele-de-France", "latitude": 48.8774615, "longitude": 2.353395399999954}, {"_id": "652155b50d26ec3ff85044a7", "identifier": "7abe0b0b-2933-541e-6389-501ba3ace236", "label": "MEP Maison europ\u00e9enne de la photographie", "streetaddress": "5-7 rue de Fourcy", "postalcode": 75004, "department": "Paris", "region": "\u00cele-de-France", "latitude": 48.8548172, "longitude": 2.359104000000002}, {"_id": "652155b60d26ec3ff85044a8", "identifier": "53af5312-a532-11eb-b28a-0050569afc27", "label": "March\u00e9 Saint-Pierre", "streetaddress": "2 rue Charles Nodier", "postalcode": 75018, "department": "Paris", "region": "\u00cele-de-France", "latitude": 48.884567399999995, "longitude": 2.3450460122281664}, {"_id": "652155b60d26ec3ff85044a9", "identifier": "bff2de3e-4cd9-11ea-a56d-0050569afc27", "label": "H\u00f4tel de la Marine", "streetaddress": "2 place de la Concorde", "postalcode": 75008, "department": "Paris", "region": "\u00cele-de-France", "latitude": 48.8666786, "longitude": 2.322897}, {"_id": "652155b60d26ec3ff85044aa", "identifier": "83995091-8759-590e-edcd-501ba3b35554", "label": "Paroisse Notre-Dame d'Esp\u00e9rance", "streetaddress": "47 rue de la Roquette", "postalcode": 75011, "department": "Paris", "region": "\u00cele-de-France", "latitude": 48.8557236, "longitude": 2.37471979999998}, {"_id": "652155b60d26ec3ff85044ab", "identifier": "6f5e9aa2-4333-145f-ae5e-501ba3fc0041", "label": "Basilique Sainte Jeanne d'Arc", "streetaddress": "18 rue de la Chapelle", "postalcode": 75018, "department": "Paris", "region": "\u00cele-de-France", "latitude": 48.89144899999999, "longitude": 2.3600942000000487}, {"_id": "652155b60d26ec3ff85044ac", "identifier": "776017", "label": "Parc Monceau", "streetaddress": "35 boulevard Courcelles", "postalcode": 75008, "department": "Paris", "region": "\u00cele-de-France", "latitude": 48.879351, "longitude": 2.308919}, {"_id": "652155b60d26ec3ff85044ad", "identifier": "6593826", "label": "Ar\u00e8nes de Lut\u00e8ce", "streetaddress": "49 Rue Monge", "postalcode": 75005, "department": "Paris", "region": "\u00cele-de-France", "latitude": 48.84514, "longitude": 2.352319}, {"_id": "652155b60d26ec3ff85044ae", "identifier": "5cfe4013-fb74-7167-de4c-501ba334602d", "label": "Square Saint-Gilles Grand Veneur - Pauline-Roland", "streetaddress": "9 rue du Grand Veneur", "postalcode": 75003, "department": "Paris", "region": "\u00cele-de-France", "latitude": 48.85906079999999, "longitude": 2.365629500000068}, {"_id": "652155b60d26ec3ff85044af", "identifier": "4da11d7a-15d8-5140-0bae-5081605f3003", "label": "Jardin Berthe Morisot", "streetaddress": "34 rue du Dessous-des-Berges", "postalcode": 75013, "department": "Paris", "region": "\u00cele-de-France", "latitude": 48.8275331, "longitude": 2.38117950000003}, {"_id": "652155b60d26ec3ff85044b0", "identifier": "bc58489b-838c-d449-b1eb-501ba3af80de", "label": "Jardin des Tuileries", "streetaddress": "Place de la Concorde", "postalcode": 75001, "department": "Paris", "region": "\u00cele-de-France", "latitude": 48.8634916, "longitude": 2.327494300000012}, {"_id": "652155b60d26ec3ff85044b1", "identifier": "93b60560-ffad-451a-395f-501ba3f32235", "label": "Fondation d'entreprise Pernod Ricard", "streetaddress": "1 cours Paul Ricard", "postalcode": 75008, "department": "Paris", "region": "\u00cele-de-France", "latitude": 48.8776847, "longitude": 2.3261626}, {"_id": "652155b60d26ec3ff85044b2", "identifier": "cf6ef334-a136-8b96-5a4e-501ba358ecaa", "label": "Arc de Triomphe", "streetaddress": "Place Charles de Gaulle", "postalcode": 75008, "department": "Paris", "region": "\u00cele-de-France", "latitude": 48.8738311, "longitude": 2.2950272000000496}, {"_id": "652155b60d26ec3ff85044b3", "identifier": "ccbf0c41-9776-a577-be8d-501ba3025309", "label": "Fondation des Artistes", "streetaddress": "H\u00f4tel Salomon de Rothschild - 11 rue Berryer", "postalcode": 75008, "department": "Paris", "region": "\u00cele-de-France", "latitude": 48.8754125, "longitude": 2.3035824999999477}, {"_id": "652155b60d26ec3ff85044b4", "identifier": "145d64cb-4ccd-67e8-a17e-501ba358a0af", "label": "Galerie des Enfants - Mus\u00e9um national d'histoire naturelle", "streetaddress": "36 rue Geoffroy Saint-Hilaire", "postalcode": 75005, "department": "Paris", "region": "\u00cele-de-France", "latitude": 48.8414229, "longitude": 2.3562147000000095}, {"_id": "652155b60d26ec3ff85044b5", "identifier": "b3f4ca97-fc71-638b-f678-501ba37dc577", "label": "Espace Reuilly", "streetaddress": "21 rue H\u00e9nard", "postalcode": 75012, "department": "Paris", "region": "\u00cele-de-France", "latitude": 48.8425506, "longitude": 2.389573499999983}, {"_id": "652155b60d26ec3ff85044b6", "identifier": "9e6e3f62-a468-ae03-8011-501ba365d204", "label": "Mus\u00e9e de la magie - Mus\u00e9e des automates", "streetaddress": "11 rue Saint-Paul", "postalcode": 75004, "department": "Paris", "region": "\u00cele-de-France", "latitude": 48.8530373, "longitude": 2.3611925000000156}, {"_id": "652155b60d26ec3ff85044b7", "identifier": "697946", "label": "Philharmonie de Paris - Cit\u00e9 de la musique", "streetaddress": "221 avenue Jean-Jaur\u00e8s", "postalcode": 75019, "department": "Paris", "region": "\u00cele-de-France", "latitude": 48.889306, "longitude": 2.393807}, {"_id": "652155b60d26ec3ff85044b8", "identifier": "ca0cc5b8-7696-b9fd-8f4d-501ba36daa68", "label": "Bois de Vincennes", "streetaddress": "Bois de Vincennes", "postalcode": 75012, "department": "Paris", "region": "\u00cele-de-France", "latitude": 48.8329459, "longitude": 2.434256600000026}, {"_id": "652155b60d26ec3ff85044b9", "identifier": "35467ca1-84be-5b41-2135-56e2e1a703b6", "label": "Maison de l'Unesco", "streetaddress": "7 place de Fontenoy", "postalcode": 75007, "department": "Paris", "region": "\u00cele-de-France", "latitude": 48.8498879, "longitude": 2.306503199999952}, {"_id": "652155b60d26ec3ff85044ba", "identifier": "695fa8f1-6441-5eeb-862d-501ba3e25130", "label": "Jeu de Paume Paris", "streetaddress": "1 place de la Concorde, jardin des Tuileries", "postalcode": 75001, "department": "Paris", "region": "\u00cele-de-France", "latitude": 48.8662565, "longitude": 2.3233986000000186}, {"_id": "652155b60d26ec3ff85044bb", "identifier": "cfed8ed0-9ef1-f502-d07b-56e2da79fe6e", "label": "\u00cele aux Cygnes", "streetaddress": "Entre les ponts de Grenelle et de Bir-Hakeim", "postalcode": 75015, "department": "Paris", "region": "\u00cele-de-France", "latitude": 48.851667, "longitude": 2.281944000000067}, {"_id": "652155b60d26ec3ff85044bc", "identifier": "f9690a72-8e7f-fcce-6d60-501ba32d1fcc", "label": "American Center for Art and Culture - H\u00f4tel Mona Bismarck", "streetaddress": "34 avenue de New York", "postalcode": 75116, "department": "Paris", "region": "\u00cele-de-France", "latitude": 48.8631073, "longitude": 2.2948192000000063}, {"_id": "652155b60d26ec3ff85044bd", "identifier": "35f57b0c-b02c-11e7-a4ff-0050569a22ea", "label": "Atelier des Lumi\u00e8res", "streetaddress": "38 rue Saint-Maur", "postalcode": 75011, "department": "Paris", "region": "\u00cele-de-France", "latitude": 48.8617312, "longitude": 2.3806842999999844}, {"_id": "652155b60d26ec3ff85044be", "identifier": "a979fc0b-934e-d3bd-937d-501ba3935851", "label": "La Petite Ceinture", "streetaddress": "Dans les 12e, 13e, 14e, 15e, 16e, 17e, 18e, 19e et 20e arrondissements", "postalcode": 75004, "department": "Paris", "region": "\u00cele-de-France", "latitude": 48.8533249, "longitude": 2.3488596}, {"_id": "652155b60d26ec3ff85044bf", "identifier": "b107a0ac-baca-09c6-5df8-501ba3121f12", "label": "Square Paul Langevin", "streetaddress": "20 rue Monge", "postalcode": 75005, "department": "Paris", "region": "\u00cele-de-France", "latitude": 48.8483745, "longitude": 2.349973299999988}, {"_id": "652155b60d26ec3ff85044c0", "identifier": "798896", "label": "Jardin des Tuileries", "streetaddress": "113 rue de Rivoli", "postalcode": 75001, "department": "Paris", "region": "\u00cele-de-France", "latitude": 48.863086, "longitude": 2.333734}, {"_id": "652155b60d26ec3ff85044c1", "identifier": "925fe251-cdde-31b7-7241-501ba392b2e9", "label": "Biblioth\u00e8que Benjamin Rabier", "streetaddress": "141 avenue de Flandre", "postalcode": 75019, "department": "Paris", "region": "\u00cele-de-France", "latitude": 48.8926199, "longitude": 2.3791378999999324}, {"_id": "652155b60d26ec3ff85044c2", "identifier": "25ed13eb-ebe7-6dbd-01f8-501ba30abce5", "label": "Mus\u00e9e Pierre Cardin Pass\u00e9-Pr\u00e9sent-Futur", "streetaddress": "5 rue Saint-Merri", "postalcode": 75004, "department": "Paris", "region": "\u00cele-de-France", "latitude": 48.8589499, "longitude": 2.353209600000014}, {"_id": "652155b60d26ec3ff85044c3", "identifier": "226cde58-9bcc-c801-6e88-55b20b323eef", "label": "Jardin Nelson Mandela", "streetaddress": "Passage de la Canop\u00e9e - Rues Rambuteau et Coquill\u00e8re - Rue de Viarmes - Rue Berger", "postalcode": 75001, "department": "Paris", "region": "\u00cele-de-France", "latitude": 48.86261470319054, "longitude": 2.344407880950939}, {"_id": "652155b60d26ec3ff85044c4", "identifier": "a481c621-7d67-8754-5e91-501ba43999a8", "label": "March\u00e9 Grenelle", "streetaddress": "Boulevard de Grenelle - Entre la rue Lourmel et la rue du Commerce", "postalcode": 75015, "department": "Paris", "region": "\u00cele-de-France", "latitude": 48.8502377, "longitude": 2.294611400000008}, {"_id": "652155b60d26ec3ff85044c5", "identifier": "a3883455-f3d7-d4a8-81e5-55d300eb9226", "label": "Galerie Mathgoth", "streetaddress": "34 rue H\u00e9l\u00e8ne Brion", "postalcode": 75013, "department": "Paris", "region": "\u00cele-de-France", "latitude": 48.8279228, "longitude": 2.380432199999973}, {"_id": "652155b60d26ec3ff85044c6", "identifier": "ef36b075-0010-2bbb-409c-501ba3cfc031", "label": "La Ga\u00eet\u00e9 Lyrique", "streetaddress": "3 bis rue Papin", "postalcode": 75003, "department": "Paris", "region": "\u00cele-de-France", "latitude": 48.8668378, "longitude": 2.3540040999999974}, {"_id": "652155b60d26ec3ff85044c7", "identifier": "ec62409b-ec40-db88-162e-501ba38b348d", "label": "Cimeti\u00e8re de Picpus", "streetaddress": "35 rue de Picpus", "postalcode": 75012, "department": "Paris", "region": "\u00cele-de-France", "latitude": 48.84425599999999, "longitude": 2.3963619999999537}, {"_id": "652155b60d26ec3ff85044c8", "identifier": "c7120f2e-4151-61a9-925b-501ba3afa678", "label": "Mus\u00e9e des Arts et M\u00e9tiers", "streetaddress": "60 rue R\u00e9aumur", "postalcode": 75003, "department": "Paris", "region": "\u00cele-de-France", "latitude": 48.865842, "longitude": 2.3554810000000543}, {"_id": "652155b60d26ec3ff85044c9", "identifier": "dd450a46-1b18-413c-d1c6-501ba3f651a2", "label": "Hotel de Ville de Paris", "streetaddress": "Mairie de Paris - Place de l'H\u00f4tel de Ville", "postalcode": 75004, "department": "Paris", "region": "\u00cele-de-France", "latitude": 48.8568092, "longitude": 2.351064199999996}, {"_id": "652155b60d26ec3ff85044ca", "identifier": "df809693-3a78-4b46-cbee-501ba35dcce5", "label": "\u00c9glise Saint-Louis de la Salp\u00eatri\u00e8re", "streetaddress": "47 boulevard de l'H\u00f4pital", "postalcode": 75013, "department": "Paris", "region": "\u00cele-de-France", "latitude": 48.83878067642383, "longitude": 2.363670528063949}, {"_id": "652155b60d26ec3ff85044cb", "identifier": "8eca7701-200a-c159-9330-501ba3df12ad", "label": "\u00c9cole du Breuil - Arts et Techniques du paysage", "streetaddress": "Route de la Ferme - Bois de Vincennes", "postalcode": 75012, "department": "Paris", "region": "\u00cele-de-France", "latitude": 48.82396966279544, "longitude": 2.4597767476379886}, {"_id": "652155b60d26ec3ff85044cc", "identifier": "765520", "label": "Parc Floral de Paris", "streetaddress": "Route du Champs de man\u0153uvre", "postalcode": 75012, "department": "Paris", "region": "\u00cele-de-France", "latitude": 48.838, "longitude": 2.4453}, {"_id": "652155b60d26ec3ff85044cd", "identifier": "9dfe5a16-1a21-7115-e170-501ba331b5c1", "label": "Parc de Belleville", "streetaddress": "47 rue des Couronnes", "postalcode": 75020, "department": "Paris", "region": "\u00cele-de-France", "latitude": 48.8702444, "longitude": 2.3848246000000017}, {"_id": "652155b60d26ec3ff85044ce", "identifier": "2cd44fe8-c875-11eb-940c-0050569afc27", "label": "Ferme urbaine Ren\u00e9 Binet", "streetaddress": "Jardin Ren\u00e9 Binet - 52 rue Ren\u00e9 Binet", "postalcode": 75018, "department": "Paris", "region": "\u00cele-de-France", "latitude": 48.8993958, "longitude": 2.3381987}, {"_id": "652155b60d26ec3ff85044cf", "identifier": "aba60287-c6fc-7451-da07-501ba3d12353", "label": "Paroisse de la Trinit\u00e9", "streetaddress": "172-174 boulevard Vincent Auriol", "postalcode": 75013, "department": "Paris", "region": "\u00cele-de-France", "latitude": 48.83176, "longitude": 2.357635699999946}, {"_id": "652155b60d26ec3ff85044d0", "identifier": "5307048", "label": "Maison des M\u00e9tallos", "streetaddress": "94 rue Jean-Pierre Timbaud", "postalcode": 75011, "department": "Paris", "region": "\u00cele-de-France", "latitude": 48.867348, "longitude": 2.37806}, {"_id": "652155b60d26ec3ff85044d1", "identifier": "e0b431f3-db17-ac29-4430-501ba3a69fb4", "label": "Square de la Roquette", "streetaddress": "143 rue de la Roquette", "postalcode": 75011, "department": "Paris", "region": "\u00cele-de-France", "latitude": 48.8589645, "longitude": 2.3852805999999873}, {"_id": "652155b60d26ec3ff85044d2", "identifier": "770443", "label": "Dal\u00ed Paris", "streetaddress": "11 rue Poulbot", "postalcode": 75018, "department": "Paris", "region": "\u00cele-de-France", "latitude": 48.88656, "longitude": 2.339786}, {"_id": "652155b60d26ec3ff85044d3", "identifier": "3d29b37c-4b74-70c9-e15e-501ba3b7a1f7", "label": "Petit Palais - Mus\u00e9e des Beaux-Arts de la ville de Paris", "streetaddress": "Avenue Winston Churchill", "postalcode": 75008, "department": "Paris", "region": "\u00cele-de-France", "latitude": 48.8662086, "longitude": 2.3155526000000464}, {"_id": "652155b60d26ec3ff85044d4", "identifier": "960d039a-8335-57d5-dd5c-532b09aec471", "label": "Jardin du Pr\u00e9 Catelan", "streetaddress": "Route de Suresnes", "postalcode": 75016, "department": "Paris", "region": "\u00cele-de-France", "latitude": 48.866304, "longitude": 2.25483399999996}, {"_id": "652155b70d26ec3ff85044d5", "identifier": "915135", "label": "Visite en famille du Palais Garnier", "streetaddress": "Op\u00e9ra Garnier", "postalcode": 75009, "department": "Paris", "region": "\u00cele-de-France", "latitude": 48.871831, "longitude": 2.331916}, {"_id": "652155b70d26ec3ff85044d6", "identifier": "aeb28cc3-c379-ad57-96f4-570fb6d26801", "label": "Cimeti\u00e8re de Passy", "streetaddress": "2 rue du Commandant Schloesing", "postalcode": 75016, "department": "Paris", "region": "\u00cele-de-France", "latitude": 48.861916, "longitude": 2.2852686999999605}, {"_id": "652155b70d26ec3ff85044d7", "identifier": "2e72e65d-00ab-0098-3823-501ba3542690", "label": "Mus\u00e9e national de la Marine", "streetaddress": "Palais de Chaillot - 17 place du Trocad\u00e9ro et du 11 Novembre", "postalcode": 75116, "department": "Paris", "region": "\u00cele-de-France", "latitude": 48.8623241, "longitude": 2.287571000000071}, {"_id": "652155b70d26ec3ff85044d8", "identifier": "dc7cd486-dac0-4dbb-d220-51ffb21834d5", "label": "Passage des Panoramas", "streetaddress": "11 boulevard Montmartre", "postalcode": 75002, "department": "Paris", "region": "\u00cele-de-France", "latitude": 48.8715591, "longitude": 2.341981300000043}, {"_id": "652155b70d26ec3ff85044d9", "identifier": "56f9c06c-6065-f232-4046-50ec349cf399", "label": "March\u00e9 T\u00e9l\u00e9graphe", "streetaddress": "Rue du T\u00e9l\u00e9graphe", "postalcode": 75020, "department": "Paris", "region": "\u00cele-de-France", "latitude": 48.8732267, "longitude": 2.3992068000000017}, {"_id": "652155b70d26ec3ff85044da", "identifier": "830116", "label": "Jardin du mus\u00e9e Rodin", "streetaddress": "19 boulevard des Invalides", "postalcode": 75007, "department": "Paris", "region": "\u00cele-de-France", "latitude": 48.855817, "longitude": 2.315208}, {"_id": "652155b70d26ec3ff85044db", "identifier": "c7543234-3de3-6149-d838-501ba3ca592e", "label": "Centre Paris Anim' Dunois", "streetaddress": "61 rue Dunois", "postalcode": 75013, "department": "Paris", "region": "\u00cele-de-France", "latitude": 48.8331026, "longitude": 2.36633489999997}, {"_id": "652155b70d26ec3ff85044dc", "identifier": "8ead014e-61aa-5500-c5a5-5278b9952d5c", "label": "Studio 13/16", "streetaddress": "Centre Pompidou - Place Georges Pompidou", "postalcode": 75004, "department": "Paris", "region": "\u00cele-de-France", "latitude": 48.860642, "longitude": 2.351674799999955}, {"_id": "652155b70d26ec3ff85044dd", "identifier": "d0b92161-db7f-7c31-8a92-501ba320630a", "label": "Minist\u00e8re de l\u2019\u00e9conomie, des finances et de la relance", "streetaddress": "139 rue de Bercy", "postalcode": 75012, "department": "Paris", "region": "\u00cele-de-France", "latitude": 48.8408937, "longitude": 2.3776659999999765}, {"_id": "652155b70d26ec3ff85044de", "identifier": "85073536-30c7-11eb-8ba1-0050569afc27", "label": "Centre de documentation du M\u00e9morial de la Shoah", "streetaddress": "17 rue Geoffroy l'Asnier", "postalcode": 75004, "department": "Paris", "region": "\u00cele-de-France", "latitude": 48.8552046, "longitude": 2.3558261000000584}, {"_id": "652155b70d26ec3ff85044df", "identifier": "27ddce40-22c6-11ed-bcad-0050569afc27", "label": "Grand Palais Immersif", "streetaddress": "110 rue de Lyon", "postalcode": 75012, "department": "Paris", "region": "\u00cele-de-France", "latitude": 48.851066550317135, "longitude": 2.370101809501648}, {"_id": "652155b70d26ec3ff85044e0", "identifier": "d2a4af69-1837-7bc1-2879-501ba3db7948", "label": "Cit\u00e9 des sciences et de l'industrie", "streetaddress": "30 avenue Corentin Cariou", "postalcode": 75019, "department": "Paris", "region": "\u00cele-de-France", "latitude": 48.895985, "longitude": 2.387059000000022}, {"_id": "652155b70d26ec3ff85044e1", "identifier": "698026", "label": "Palais de Tokyo", "streetaddress": "13 avenue du Pr\u00e9sident Wilson", "postalcode": 75116, "department": "Paris", "region": "\u00cele-de-France", "latitude": 48.864572, "longitude": 2.296371}, {"_id": "652155b70d26ec3ff85044e2", "identifier": "8cfee202-3519-10d1-d25d-501ba3befe1d", "label": "Fondation Louis Vuitton", "streetaddress": "Bois de Boulogne - 8 avenue du Mahatma Gandhi", "postalcode": 75116, "department": "Paris", "region": "\u00cele-de-France", "latitude": 48.8785986, "longitude": 2.2641184000000294}, {"_id": "652155b70d26ec3ff85044e3", "identifier": "237f4f74-110d-69a2-969c-501ba36f9cac", "label": "Parc Andr\u00e9 Citro\u00ebn", "streetaddress": "2 rue Cauchy", "postalcode": 75015, "department": "Paris", "region": "\u00cele-de-France", "latitude": 48.8434055, "longitude": 2.2748933999999963}, {"_id": "652155b70d26ec3ff85044e4", "identifier": "896613", "label": "Mus\u00e9e national Eug\u00e8ne Delacroix", "streetaddress": "6, Rue de Furstemberg", "postalcode": 75006, "department": "Paris", "region": "\u00cele-de-France", "latitude": 48.854411, "longitude": 2.335655}, {"_id": "652155b70d26ec3ff85044e5", "identifier": "868737", "label": "Jardin de la Fondation Cartier pour l'art contemporain", "streetaddress": "261 boulevard Raspail", "postalcode": 75014, "department": "Paris", "region": "\u00cele-de-France", "latitude": 48.837185, "longitude": 2.331692}, {"_id": "652155b70d26ec3ff85044e6", "identifier": "e1a265c1-b368-ddcd-9f5c-501ba45d7123", "label": "March\u00e9 couvert La Chapelle", "streetaddress": "10 rue de l'Olive", "postalcode": 75018, "department": "Paris", "region": "\u00cele-de-France", "latitude": 48.8906882, "longitude": 2.3612688000000617}, {"_id": "652155b70d26ec3ff85044e7", "identifier": "d5f4a3e6-a53b-11eb-ab6d-0050569afc27", "label": "Notre-Dame de la Croix de M\u00e9nilmontant", "streetaddress": "3 place M\u00e9nilmontant", "postalcode": 75020, "department": "Paris", "region": "\u00cele-de-France", "latitude": 48.86861585, "longitude": 2.3874442809516316}, {"_id": "652155b70d26ec3ff85044e8", "identifier": "5ec480a1-ce7f-60aa-3a5e-501ba3e7cc2b", "label": "\u00c9glise Sainte-\u00c9lisabeth de Hongrie", "streetaddress": "195 rue du Temple", "postalcode": 75003, "department": "Paris", "region": "\u00cele-de-France", "latitude": 48.8660902, "longitude": 2.3610965000000306}, {"_id": "652155b70d26ec3ff85044e9", "identifier": "1ef7db52-78a5-97ce-3f18-501ba341c59e", "label": "Coul\u00e9e verte Ren\u00e9-Dumont", "streetaddress": "Avenue Daumesnil", "postalcode": 75012, "department": "Paris", "region": "\u00cele-de-France", "latitude": 48.848709473681225, "longitude": 2.3722830532287844}, {"_id": "652155b70d26ec3ff85044ea", "identifier": "6a511eb9-1998-e6ea-bffc-501ba358ea09", "label": "Notre-Dame de la Compassion", "streetaddress": "Place du G\u00e9n\u00e9ral K\u0153nig", "postalcode": 75017, "department": "Paris", "region": "\u00cele-de-France", "latitude": 48.8815865, "longitude": 2.2836432999999943}, {"_id": "652155b70d26ec3ff85044eb", "identifier": "5b0ec555-b344-93a2-ef33-501ba32945e9", "label": "Goethe-Institut de Paris", "streetaddress": "17 avenue d'I\u00e9na", "postalcode": 75016, "department": "Paris", "region": "\u00cele-de-France", "latitude": 48.8663924, "longitude": 2.2947094999999536}, {"_id": "652155b70d26ec3ff85044ec", "identifier": "5483078", "label": "March\u00e9 aux fleurs Reine Elizabeth II", "streetaddress": "Place Louis L\u00e9pine", "postalcode": 75004, "department": "Paris", "region": "\u00cele-de-France", "latitude": 48.855375, "longitude": 2.347489}, {"_id": "652155b70d26ec3ff85044ed", "identifier": "968be238-579a-ede0-edac-501ba36865ca", "label": "Cimeti\u00e8re du P\u00e8re Lachaise", "streetaddress": "Face au 21 boulevard de M\u00e9nilmontant", "postalcode": 75020, "department": "Paris", "region": "\u00cele-de-France", "latitude": 48.8596721, "longitude": 2.3899533999999676}, {"_id": "652155b70d26ec3ff85044ee", "identifier": "a03ceda4-ecc9-ed09-96d0-501ba42ce2a7", "label": "March\u00e9 Monge", "streetaddress": "Place Monge", "postalcode": 75005, "department": "Paris", "region": "\u00cele-de-France", "latitude": 48.8426979, "longitude": 2.3521379000000024}, {"_id": "652155b70d26ec3ff85044ef", "identifier": "45fb7b61-aa90-8059-4f56-501ba3a8fc03", "label": "Conciergerie", "streetaddress": "2 boulevard du Palais", "postalcode": 75001, "department": "Paris", "region": "\u00cele-de-France", "latitude": 48.8555045, "longitude": 2.34585519999996}, {"_id": "652155b70d26ec3ff85044f0", "identifier": "920479b2-8181-4ea6-a01d-501ba390c8a8", "label": "Temple de la R\u00e9demption", "streetaddress": "16 rue Chauchat", "postalcode": 75009, "department": "Paris", "region": "\u00cele-de-France", "latitude": 48.8738673, "longitude": 2.3397657000000436}, {"_id": "652155b70d26ec3ff85044f1", "identifier": "bf954478-8ce9-1bbf-11d5-501ba33f34be", "label": "Parc de Bercy", "streetaddress": "41 rue Paul Belmondo", "postalcode": 75012, "department": "Paris", "region": "\u00cele-de-France", "latitude": 48.83585353828514, "longitude": 2.3814175761657452}, {"_id": "652155b70d26ec3ff85044f2", "identifier": "781881", "label": "Parc de la Butte du Chapeau Rouge", "streetaddress": "5 avril Debidour", "postalcode": 75019, "department": "Paris", "region": "\u00cele-de-France", "latitude": 48.881886, "longitude": 2.398859}, {"_id": "652155b70d26ec3ff85044f3", "identifier": "d5b1973b-b411-fb34-49e2-501ba3b126b8", "label": "Choco-Story Paris - Le mus\u00e9e du chocolat", "streetaddress": "28 boulevard de Bonne Nouvelle", "postalcode": 75010, "department": "Paris", "region": "\u00cele-de-France", "latitude": 48.8703516, "longitude": 2.3500596999999743}, {"_id": "652155b70d26ec3ff85044f4", "identifier": "6b53b690-b85b-665d-3b1a-501ba3b1af1e", "label": "\u00c9glise Saint-Pierre de Montmartre", "streetaddress": "2 rue du Mont-Cenis", "postalcode": 75018, "department": "Paris", "region": "\u00cele-de-France", "latitude": 48.8865618, "longitude": 2.341328400000066}, {"_id": "652155b70d26ec3ff85044f5", "identifier": "c409ae8a-552d-5f71-46dd-501ba3b728b4", "label": "Abbaye royale du Val-de-Gr\u00e2ce et mus\u00e9e du Service de sant\u00e9 des arm\u00e9es", "streetaddress": "Abbaye : 277 rue Saint-Jacques - Mus\u00e9e : 1 place Laveran", "postalcode": 75005, "department": "Paris", "region": "\u00cele-de-France", "latitude": 48.8407953, "longitude": 2.341243899999995}, {"_id": "652155b70d26ec3ff85044f6", "identifier": "5941bbe5-cff3-7c96-9718-501ba31b2f47", "label": "Mus\u00e9e Cognacq-Jay - Le go\u00fbt du XVIIIe", "streetaddress": "8 rue Elz\u00e9vir", "postalcode": 75003, "department": "Paris", "region": "\u00cele-de-France", "latitude": 48.858216, "longitude": 2.361419999999953},