[{"_id": "651a8c9b2a622f754dfc934b", "identifier": "6653538", "label": "Circuit moto \"Sucs et Tanargue\"", "streetaddress": null, "postalcode": 7110, "department": "Ard\u00e8che", "region": "Auvergne-Rh\u00f4ne-Alpes", "latitude": 44.480966, "longitude": 4.69167}, {"_id": "651a8c9b2a622f754dfc934c", "identifier": "PNALAR0300000032", "label": "Grand site de l'aven d'orgnac grotte et mus\u00e9e de la pr\u00e9histoire", "streetaddress": "AVEN D'ORGNAC GROTTE*** & MUSEE DE PREHISTOIRE", "postalcode": 7150, "department": "Ard\u00e8che", "region": "Auvergne-Rh\u00f4ne-Alpes", "latitude": 44.31893, "longitude": 4.413086}, {"_id": "651a8c9b2a622f754dfc934d", "identifier": "4696337", "label": "La c\u00f4te de Champagne", "streetaddress": "Au coeur du village face \u00e0 l\u2019\u00e9glise", "postalcode": 7340, "department": "Ard\u00e8che", "region": "Auvergne-Rh\u00f4ne-Alpes", "latitude": 45.215966, "longitude": 4.800425}, {"_id": "651a8c9b2a622f754dfc934e", "identifier": "4857984", "label": "Route touristique \"D\u00e9couverte de la Ch\u00e2taigne\"", "streetaddress": null, "postalcode": 7260, "department": "Ard\u00e8che", "region": "Auvergne-Rh\u00f4ne-Alpes", "latitude": 44.479359, "longitude": 4.240216}, {"_id": "651a8c9b2a622f754dfc934f", "identifier": "547461", "label": "Lacs et volcans en montagne ard\u00e9choise", "streetaddress": "Bourlatier", "postalcode": 7160, "department": "Ard\u00e8che", "region": "Auvergne-Rh\u00f4ne-Alpes", "latitude": 44.817911, "longitude": 4.243827}, {"_id": "651a8c9b2a622f754dfc9350", "identifier": "PNARHA0070000066", "label": "Grotte de la Madeleine", "streetaddress": "Route touristique des Gorges de l'Ard\u00e8che", "postalcode": 7700, "department": "Ard\u00e8che", "region": "Auvergne-Rh\u00f4ne-Alpes", "latitude": 44.34041, "longitude": 4.483636}, {"_id": "651a8c9c2a622f754dfc9351", "identifier": "811368", "label": "Circuit moto vers Lamastre et Saint-Agr\u00e8ve", "streetaddress": "Place des Cordeliers", "postalcode": 7100, "department": "Ard\u00e8che", "region": "Auvergne-Rh\u00f4ne-Alpes", "latitude": 45.240451, "longitude": 4.672744}, {"_id": "651a8c9c2a622f754dfc9352", "identifier": "5234439", "label": "Circuit VAE : L'Ard\u00e9choise - Le Doux", "streetaddress": "Maison du d\u00e9part de l'Ard\u00e9choise", "postalcode": 7410, "department": "Ard\u00e8che", "region": "Auvergne-Rh\u00f4ne-Alpes", "latitude": 45.083, "longitude": 4.6259}, {"_id": "651a8c9c2a622f754dfc9353", "identifier": "6376858", "label": "De la Dolce Via au plateau de Vernoux", "streetaddress": "La Chapelle", "postalcode": 7360, "department": "Ard\u00e8che", "region": "Auvergne-Rh\u00f4ne-Alpes", "latitude": 44.805468, "longitude": 4.618562}, {"_id": "651a8c9c2a622f754dfc9354", "identifier": "5268758", "label": "Parcours permanent d'orientation", "streetaddress": "4 B rue Saint-Joseph", "postalcode": 7160, "department": "Ard\u00e8che", "region": "Auvergne-Rh\u00f4ne-Alpes", "latitude": 44.907739, "longitude": 4.42256}, {"_id": "651a8c9c2a622f754dfc9355", "identifier": "6003150", "label": "Circuit Terroir", "streetaddress": null, "postalcode": 7270, "department": "Ard\u00e8che", "region": "Auvergne-Rh\u00f4ne-Alpes", "latitude": 44.986892, "longitude": 4.581502}, {"_id": "651a8c9c2a622f754dfc9356", "identifier": "406111", "label": "Parcours historique", "streetaddress": "Village", "postalcode": 7370, "department": "Ard\u00e8che", "region": "Auvergne-Rh\u00f4ne-Alpes", "latitude": 45.18657, "longitude": 4.798182}, {"_id": "651a8c9c2a622f754dfc9357", "identifier": "547596", "label": "La vall\u00e9e secr\u00e8te de l'Eyrieux", "streetaddress": null, "postalcode": 7160, "department": "Ard\u00e8che", "region": "Auvergne-Rh\u00f4ne-Alpes", "latitude": 44.9061, "longitude": 4.423175}, {"_id": "651a8c9c2a622f754dfc9358", "identifier": "811240", "label": "Circuit moto vers la for\u00eat de Taillard", "streetaddress": "Place des Cordeliers", "postalcode": 7100, "department": "Ard\u00e8che", "region": "Auvergne-Rh\u00f4ne-Alpes", "latitude": 45.240451, "longitude": 4.672744}, {"_id": "651a8c9c2a622f754dfc9359", "identifier": "785770", "label": "Circuit voiture montagneux en Ard\u00e8che Verte", "streetaddress": "D\u00e9part devant l'Office de Tourisme, place des Cordeliers", "postalcode": 7100, "department": "Ard\u00e8che", "region": "Auvergne-Rh\u00f4ne-Alpes", "latitude": 45.240451, "longitude": 4.672744}, {"_id": "651a8c9c2a622f754dfc935a", "identifier": "785753", "label": "Circuit voiture entre vignes et coteaux", "streetaddress": "D\u00e9part devant le Pavillon du Tourisme", "postalcode": 7340, "department": "Ard\u00e8che", "region": "Auvergne-Rh\u00f4ne-Alpes", "latitude": 45.318722, "longitude": 4.763234}, {"_id": "651a8c9c2a622f754dfc935b", "identifier": "120959", "label": "La chapelle de Verlieux", "streetaddress": "Salle polyvalente", "postalcode": 7340, "department": "Ard\u00e8che", "region": "Auvergne-Rh\u00f4ne-Alpes", "latitude": 45.30266, "longitude": 4.78784}, {"_id": "651a8c9c2a622f754dfc935c", "identifier": "547478", "label": "L'Ard\u00e8che, un patrimoine b\u00e2ti exceptionnel", "streetaddress": null, "postalcode": 7220, "department": "Ard\u00e8che", "region": "Auvergne-Rh\u00f4ne-Alpes", "latitude": 44.480269, "longitude": 4.691053}, {"_id": "651a8c9c2a622f754dfc935d", "identifier": "782689", "label": "Circuit voiture autour du patrimoine Ard\u00e8che Grand Air", "streetaddress": "D\u00e9part devant l'Office de Tourisme, place des Cordeliers", "postalcode": 7100, "department": "Ard\u00e8che", "region": "Auvergne-Rh\u00f4ne-Alpes", "latitude": 45.240451, "longitude": 4.672744}, {"_id": "651a8c9c2a622f754dfc935e", "identifier": "153856", "label": "La terrasse du Rh\u00f4ne", "streetaddress": "Place maxime Chantier", "postalcode": 7340, "department": "Ard\u00e8che", "region": "Auvergne-Rh\u00f4ne-Alpes", "latitude": 45.240539, "longitude": 4.800339}, {"_id": "651a8c9d2a622f754dfc935f", "identifier": "5148182", "label": "Circuit touristique en voiture - La Vall\u00e9e du Doux", "streetaddress": "22 avenue Boissy d'Anglas", "postalcode": 7270, "department": "Ard\u00e8che", "region": "Auvergne-Rh\u00f4ne-Alpes", "latitude": 44.987061, "longitude": 4.581838}, {"_id": "651a8c9d2a622f754dfc9360", "identifier": "5241726", "label": "Circuit VAE : La Dolce Via", "streetaddress": null, "postalcode": 7300, "department": "Ard\u00e8che", "region": "Auvergne-Rh\u00f4ne-Alpes", "latitude": 45.069, "longitude": 4.8311}, {"_id": "651a8c9d2a622f754dfc9361", "identifier": "PNARHA0070000068", "label": "Aven d'Orgnac", "streetaddress": "Grand Site de l'Aven d'Orgnac", "postalcode": 7150, "department": "Ard\u00e8che", "region": "Auvergne-Rh\u00f4ne-Alpes", "latitude": 44.31895, "longitude": 4.413417}, {"_id": "651a8c9d2a622f754dfc9362", "identifier": "6376615", "label": "La Panoramique", "streetaddress": "18 place de l'H\u00f4tel de Ville", "postalcode": 7410, "department": "Ard\u00e8che", "region": "Auvergne-Rh\u00f4ne-Alpes", "latitude": 45.086659, "longitude": 4.628135}, {"_id": "651a8c9d2a622f754dfc9363", "identifier": "5173392", "label": "Circuit VAE : Le circuit des cols", "streetaddress": "Centre du village", "postalcode": 7410, "department": "Ard\u00e8che", "region": "Auvergne-Rh\u00f4ne-Alpes", "latitude": 45.078733, "longitude": 4.56571}, {"_id": "651a8c9d2a622f754dfc9364", "identifier": "6405361", "label": "Circuit Terroir", "streetaddress": "22 avenue Boissy d'Anglas", "postalcode": 7270, "department": "Ard\u00e8che", "region": "Auvergne-Rh\u00f4ne-Alpes", "latitude": 44.986943, "longitude": 4.581486}, {"_id": "651a8c9d2a622f754dfc9365", "identifier": "4696386", "label": "La vall\u00e9e du Torrenson", "streetaddress": "Place de l'\u00e9glise", "postalcode": 7340, "department": "Ard\u00e8che", "region": "Auvergne-Rh\u00f4ne-Alpes", "latitude": 45.245872, "longitude": 4.780383}, {"_id": "651a8c9d2a622f754dfc9366", "identifier": "5578763", "label": "Circuit Gorges, patrimoine et Pr\u00e9histoire", "streetaddress": null, "postalcode": 7220, "department": "Ard\u00e8che", "region": "Auvergne-Rh\u00f4ne-Alpes", "latitude": 44.480471, "longitude": 4.690767}, {"_id": "651a8c9d2a622f754dfc9367", "identifier": "4885625", "label": "Route touristique \"Au c\u0153ur des vall\u00e9es c\u00e9venoles\"", "streetaddress": null, "postalcode": 7140, "department": "Ard\u00e8che", "region": "Auvergne-Rh\u00f4ne-Alpes", "latitude": 44.421735, "longitude": 4.091335}, {"_id": "651a8c9d2a622f754dfc9368", "identifier": "5232646", "label": "Circuit VAE : Entre Duzon et Orm\u00e8ze", "streetaddress": "Centre du village", "postalcode": 7270, "department": "Ard\u00e8che", "region": "Auvergne-Rh\u00f4ne-Alpes", "latitude": 45.011, "longitude": 4.7023}, {"_id": "651a8c9d2a622f754dfc9369", "identifier": "6382957", "label": "Entre Vignes et Vallons", "streetaddress": "25 place Olivier de Serres", "postalcode": 7220, "department": "Ard\u00e8che", "region": "Auvergne-Rh\u00f4ne-Alpes", "latitude": 44.438773, "longitude": 4.625291}, {"_id": "651a8c9d2a622f754dfc936a", "identifier": "5194789", "label": "Circuit VAE : Vignes suspendues", "streetaddress": "Mairie", "postalcode": 7610, "department": "Ard\u00e8che", "region": "Auvergne-Rh\u00f4ne-Alpes", "latitude": 45.109, "longitude": 4.765}, {"_id": "651a8c9d2a622f754dfc936b", "identifier": "120960", "label": "Les berges du fleuve", "streetaddress": "Cour des Champenois", "postalcode": 7340, "department": "Ard\u00e8che", "region": "Auvergne-Rh\u00f4ne-Alpes", "latitude": 45.27199, "longitude": 4.801472}, {"_id": "651a8c9d2a622f754dfc936c", "identifier": "5173507", "label": "Circuit VAE : La vall\u00e9e du Doux", "streetaddress": "Gare du train de l'Ard\u00e8che", "postalcode": 7300, "department": "Ard\u00e8che", "region": "Auvergne-Rh\u00f4ne-Alpes", "latitude": 45.067521, "longitude": 4.788343}, {"_id": "651a8c9d2a622f754dfc936d", "identifier": "63085", "label": "Chemin de Croix du Montbard", "streetaddress": "Montbard", "postalcode": 7370, "department": "Ard\u00e8che", "region": "Auvergne-Rh\u00f4ne-Alpes", "latitude": 45.16346, "longitude": 4.736544}, {"_id": "651a8c9e2a622f754dfc936e", "identifier": "6653522", "label": "Circuit moto \"La montagnarde\"", "streetaddress": null, "postalcode": 7160, "department": "Ard\u00e8che", "region": "Auvergne-Rh\u00f4ne-Alpes", "latitude": 44.480966, "longitude": 4.69167}, {"_id": "651a8c9e2a622f754dfc936f", "identifier": "PNARHA0070000069", "label": "Le Pont Cass\u00e9", "streetaddress": null, "postalcode": 7700, "department": "Ard\u00e8che", "region": "Auvergne-Rh\u00f4ne-Alpes", "latitude": 44.29334, "longitude": 4.619759}, {"_id": "651a8c9e2a622f754dfc9370", "identifier": "6537028", "label": "Du Rh\u00f4ne aux coteaux du saint joseph", "streetaddress": "Pile du bac \u00e0 traille - Rue du Port", "postalcode": 7340, "department": "Ard\u00e8che", "region": "Auvergne-Rh\u00f4ne-Alpes", "latitude": 45.270986, "longitude": 4.803705}, {"_id": "651a8c9e2a622f754dfc9371", "identifier": "5947499", "label": "Le sentier des vignes", "streetaddress": "Panneau \u00ab info rando \u00bb devant l\u2019\u00e9glise", "postalcode": 7370, "department": "Ard\u00e8che", "region": "Auvergne-Rh\u00f4ne-Alpes", "latitude": 45.186747, "longitude": 4.798066}, {"_id": "651a8c9e2a622f754dfc9372", "identifier": "5232923", "label": "Circuit VAE : Entre Daronne et Doux", "streetaddress": "Halle couverte", "postalcode": 7410, "department": "Ard\u00e8che", "region": "Auvergne-Rh\u00f4ne-Alpes", "latitude": 45.065, "longitude": 4.6975}, {"_id": "651a8c9e2a622f754dfc9373", "identifier": "4946706", "label": "Route touristique du Coiron", "streetaddress": "C\u00f4te du baron", "postalcode": 7000, "department": "Ard\u00e8che", "region": "Auvergne-Rh\u00f4ne-Alpes", "latitude": 44.708087, "longitude": 4.591427}, {"_id": "651a8c9e2a622f754dfc9374", "identifier": "5181239", "label": "Circuit VAE : Le fleuve roi", "streetaddress": "Centre du village", "postalcode": 7300, "department": "Ard\u00e8che", "region": "Auvergne-Rh\u00f4ne-Alpes", "latitude": 45.015256, "longitude": 4.839789}, {"_id": "651a8c9e2a622f754dfc9375", "identifier": "6262146", "label": "Circuit Nature", "streetaddress": null, "postalcode": 7270, "department": "Ard\u00e8che", "region": "Auvergne-Rh\u00f4ne-Alpes", "latitude": 44.986892, "longitude": 4.581502}, {"_id": "651a8c9e2a622f754dfc9376", "identifier": "5216559", "label": "Circuit VAE : Entre Doux et Duzon", "streetaddress": "Eglise", "postalcode": 7300, "department": "Ard\u00e8che", "region": "Auvergne-Rh\u00f4ne-Alpes", "latitude": 45.055, "longitude": 4.7464}, {"_id": "651a8c9e2a622f754dfc9377", "identifier": "4696422", "label": "Le Montbard", "streetaddress": "Au d\u00e9part du chemin de la croix du Montbard : depuis la RD6, prendre la petite route direction \"Maison Neuve\" et \"camping l'oasis\" sur 800m", "postalcode": 7370, "department": "Ard\u00e8che", "region": "Auvergne-Rh\u00f4ne-Alpes", "latitude": 45.168158, "longitude": 4.746072}, {"_id": "651a8c9e2a622f754dfc9378", "identifier": "6504072", "label": "Vall\u00e9e de la Cance", "streetaddress": "Place Maxime Chantier", "postalcode": 7340, "department": "Ard\u00e8che", "region": "Auvergne-Rh\u00f4ne-Alpes", "latitude": 45.239893, "longitude": 4.799094}, {"_id": "651a8c9e2a622f754dfc9379", "identifier": "PNARHA0070000067", "label": "Aven Marzal", "streetaddress": "Aven Marzal", "postalcode": 7700, "department": "Ard\u00e8che", "region": "Auvergne-Rh\u00f4ne-Alpes", "latitude": 44.36997, "longitude": 4.510896}, {"_id": "651a8c9e2a622f754dfc937a", "identifier": "4850988", "label": "Via Fluvia - Annonay - Via Rh\u00f4na", "streetaddress": null, "postalcode": 7100, "department": "Ard\u00e8che", "region": "Auvergne-Rh\u00f4ne-Alpes", "latitude": 45.183859, "longitude": 4.810903}, {"_id": "651a8c9e2a622f754dfc937b", "identifier": "4696443", "label": "Le grand huit", "streetaddress": "Salle polyvalente d'Ozon au dessus-du village", "postalcode": 7370, "department": "Ard\u00e8che", "region": "Auvergne-Rh\u00f4ne-Alpes", "latitude": 45.164103, "longitude": 4.801948}, {"_id": "651a8c9e2a622f754dfc937c", "identifier": "6463006", "label": "Le Montbard", "streetaddress": "Au d\u00e9part du chemin de la croix du Montbard : depuis la RD6, prendre la petite route direction \"Maison Neuve\" et \"camping l'oasis\" sur 800m", "postalcode": 7370, "department": "Ard\u00e8che", "region": "Auvergne-Rh\u00f4ne-Alpes", "latitude": 45.168158, "longitude": 4.746072}, {"_id": "651a8c9f2a622f754dfc937d", "identifier": "5235868", "label": "Circuit VAE : La descente de Saint R\u00e9gis", "streetaddress": "Gare routi\u00e8re", "postalcode": 7300, "department": "Ard\u00e8che", "region": "Auvergne-Rh\u00f4ne-Alpes", "latitude": 45.065, "longitude": 4.8381}, {"_id": "651a8c9f2a622f754dfc937e", "identifier": "37593", "label": "Gorges de l'Ay", "streetaddress": null, "postalcode": 7370, "department": "Ard\u00e8che", "region": "Auvergne-Rh\u00f4ne-Alpes", "latitude": 45.191111, "longitude": 4.793129}, {"_id": "651a8c9f2a622f754dfc937f", "identifier": "5578189", "label": "Circuit Etapes Savoureuses ard\u00e9choises", "streetaddress": null, "postalcode": 7230, "department": "Ard\u00e8che", "region": "Auvergne-Rh\u00f4ne-Alpes", "latitude": 44.48693, "longitude": 4.153335}, {"_id": "651a8c9f2a622f754dfc9380", "identifier": "811356", "label": "Circuit moto sur le balcon du Rh\u00f4ne", "streetaddress": "Place des Cordeliers", "postalcode": 7100, "department": "Ard\u00e8che", "region": "Auvergne-Rh\u00f4ne-Alpes", "latitude": 45.240451, "longitude": 4.672744}, {"_id": "651a8c9f2a622f754dfc9381", "identifier": "842027", "label": "Circuit gourmand le long du Rh\u00f4ne", "streetaddress": null, "postalcode": 7340, "department": "Ard\u00e8che", "region": "Auvergne-Rh\u00f4ne-Alpes", "latitude": 45.255695, "longitude": 4.785812}, {"_id": "651a8c9f2a622f754dfc9382", "identifier": "6628979", "label": "Via Ard\u00e8che - tron\u00e7on cyclable Lalevade-Lab\u00e9gude", "streetaddress": "Quartier La Clape", "postalcode": 7380, "department": "Ard\u00e8che", "region": "Auvergne-Rh\u00f4ne-Alpes", "latitude": 44.648447, "longitude": 4.324264}, {"_id": "651a8c9f2a622f754dfc9383", "identifier": "5233314", "label": "Circuit VAE : Le plateau interm\u00e9diaire", "streetaddress": "Place du village", "postalcode": 7410, "department": "Ard\u00e8che", "region": "Auvergne-Rh\u00f4ne-Alpes", "latitude": 45.104, "longitude": 4.6192}, {"_id": "651a8c9f2a622f754dfc9384", "identifier": "4696402", "label": "Les rives de l'Ozon", "streetaddress": "Parking devant la mairie", "postalcode": 7370, "department": "Ard\u00e8che", "region": "Auvergne-Rh\u00f4ne-Alpes", "latitude": 45.144069, "longitude": 4.808557}, {"_id": "651a8c9f2a622f754dfc9385", "identifier": "811399", "label": "Circuit moto vers le Mont Gerbier de Jonc", "streetaddress": "Place des Cordeliers", "postalcode": 7100, "department": "Ard\u00e8che", "region": "Auvergne-Rh\u00f4ne-Alpes", "latitude": 45.240451, "longitude": 4.672744}, {"_id": "651a8c9f2a622f754dfc9386", "identifier": "4696303", "label": "Saint Bosc", "streetaddress": "Hameau de Saint-Bosc", "postalcode": 7340, "department": "Ard\u00e8che", "region": "Auvergne-Rh\u00f4ne-Alpes", "latitude": 45.215966, "longitude": 4.800425}, {"_id": "651a8c9f2a622f754dfc9387", "identifier": "6652778", "label": "Circuit moto \"Du Coiron aux Gorges de l\u2019Ard\u00e8che\"", "streetaddress": null, "postalcode": 7220, "department": "Ard\u00e8che", "region": "Auvergne-Rh\u00f4ne-Alpes", "latitude": 44.480966, "longitude": 4.69167}, {"_id": "651a8c9f2a622f754dfc9388", "identifier": "6465581", "label": "Au coeur de la Vall\u00e9e du Torrenson", "streetaddress": "Place de l'\u00e9glise", "postalcode": 7340, "department": "Ard\u00e8che", "region": "Auvergne-Rh\u00f4ne-Alpes", "latitude": 45.245872, "longitude": 4.780383}, {"_id": "651a8c9f2a622f754dfc9389", "identifier": "6480336", "label": "Les rives de l'Ozon", "streetaddress": "Parking devant la mairie", "postalcode": 7370, "department": "Ard\u00e8che", "region": "Auvergne-Rh\u00f4ne-Alpes", "latitude": 45.144061, "longitude": 4.808611}, {"_id": "651a8c9f2a622f754dfc938a", "identifier": "6463128", "label": "Le sentier des vignes", "streetaddress": "Panneau \u00ab info rando \u00bb devant l\u2019\u00e9glise", "postalcode": 7370, "department": "Ard\u00e8che", "region": "Auvergne-Rh\u00f4ne-Alpes", "latitude": 45.186747, "longitude": 4.798066}, {"_id": "651a8c9f2a622f754dfc938b", "identifier": "PNARHA0070000065", "label": "Grotte de Saint-Marcel", "streetaddress": "2759, Route touristique des Gorges", "postalcode": 7700, "department": "Ard\u00e8che", "region": "Auvergne-Rh\u00f4ne-Alpes", "latitude": 44.33238, "longitude": 4.541514}, {"_id": "651a8ca02a622f754dfc938c", "identifier": "4696065", "label": "Le Belv\u00e9d\u00e8re aux croix", "streetaddress": "Place maxime chantier", "postalcode": 7340, "department": "Ard\u00e8che", "region": "Auvergne-Rh\u00f4ne-Alpes", "latitude": 45.239781, "longitude": 4.799594}, {"_id": "651a8ca02a622f754dfc938d", "identifier": "6661398", "label": "La colline de Revirand", "streetaddress": "route de revirand", "postalcode": 7370, "department": "Ard\u00e8che", "region": "Auvergne-Rh\u00f4ne-Alpes", "latitude": 45.194529, "longitude": 4.79643}, {"_id": "651a8ca02a622f754dfc938e", "identifier": "782642", "label": "Circuit voiture d\u2019Annonay vers Villevocance", "streetaddress": "D\u00e9part devant l'Office de Tourisme, place des Cordeliers", "postalcode": 7100, "department": "Ard\u00e8che", "region": "Auvergne-Rh\u00f4ne-Alpes", "latitude": 45.240372, "longitude": 4.673066}, {"_id": "651a8ca02a622f754dfc938f", "identifier": "768416", "label": "Circuit voiture entre Vivarais et Vall\u00e9e du Rh\u00f4ne", "streetaddress": "D\u00e9part devant le Pavillon du tourisme, quai Jules Roche", "postalcode": 7340, "department": "Ard\u00e8che", "region": "Auvergne-Rh\u00f4ne-Alpes", "latitude": 45.317172, "longitude": 4.766658}, {"_id": "651a8ca02a622f754dfc9390", "identifier": "6526921", "label": "De la rivi\u00e8re d'Ay au Rh\u00f4ne", "streetaddress": "Place Jean moulin", "postalcode": 7370, "department": "Ard\u00e8che", "region": "Auvergne-Rh\u00f4ne-Alpes", "latitude": 45.187356, "longitude": 4.799836}, {"_id": "651a8ca02a622f754dfc9391", "identifier": "4696472", "label": "Les Terrasses", "streetaddress": "Place de l'\u00e9glise", "postalcode": 7370, "department": "Ard\u00e8che", "region": "Auvergne-Rh\u00f4ne-Alpes", "latitude": 45.186709, "longitude": 4.798622}, {"_id": "651a8ca02a622f754dfc9392", "identifier": "120962", "label": "Boucle de randonn\u00e9e \"Saint Etienne de Valoux\"", "streetaddress": "Parking de la mairie", "postalcode": 7340, "department": "Ard\u00e8che", "region": "Auvergne-Rh\u00f4ne-Alpes", "latitude": 45.245872, "longitude": 4.780383}, {"_id": "651a8ca02a622f754dfc9393", "identifier": "PNALAR0300000007", "label": "Aven Grotte Foresti\u00e8re", "streetaddress": "Col de la Foresti\u00e8re", "postalcode": 7150, "department": "Ard\u00e8che", "region": "Auvergne-Rh\u00f4ne-Alpes", "latitude": 44.32845, "longitude": 4.403747}, {"_id": "651a8ca02a622f754dfc9394", "identifier": "6003154", "label": "Circuit Patrimoine", "streetaddress": "22 avenue Boissy d'Anglas", "postalcode": 7270, "department": "Ard\u00e8che", "region": "Auvergne-Rh\u00f4ne-Alpes", "latitude": 44.987061, "longitude": 4.581838}, {"_id": "651a8ca02a622f754dfc9395", "identifier": "546909", "label": "La ch\u00e2taigne, reine du Parc Naturel des Monts d'Ard\u00e8che", "streetaddress": null, "postalcode": 7530, "department": "Ard\u00e8che", "region": "Auvergne-Rh\u00f4ne-Alpes", "latitude": 44.717144, "longitude": 4.358448}, {"_id": "651a8ca02a622f754dfc9396", "identifier": "6481403", "label": "De la ViaRh\u00f4na au Val d\u2019ay", "streetaddress": "Place du march\u00e9", "postalcode": 7370, "department": "Ard\u00e8che", "region": "Auvergne-Rh\u00f4ne-Alpes", "latitude": 45.144061, "longitude": 4.808611}, {"_id": "651a8ca02a622f754dfc9397", "identifier": "39923", "label": "Route touristique des Gorges de l'Ard\u00e8che", "streetaddress": null, "postalcode": 7150, "department": "Ard\u00e8che", "region": "Auvergne-Rh\u00f4ne-Alpes", "latitude": 44.399816, "longitude": 4.388266}, {"_id": "651a8ca02a622f754dfc9398", "identifier": "5217348", "label": "Circuit VAE : L'\u00e9glise de Vion", "streetaddress": "Place du cimeti\u00e8re", "postalcode": 7610, "department": "Ard\u00e8che", "region": "Auvergne-Rh\u00f4ne-Alpes", "latitude": 45.13, "longitude": 4.7635}, {"_id": "651a8ca02a622f754dfc9399", "identifier": "811414", "label": "Circuit moto vers le pays de Jean Ferrat", "streetaddress": "Place des Cordeliers", "postalcode": 7100, "department": "Ard\u00e8che", "region": "Auvergne-Rh\u00f4ne-Alpes", "latitude": 45.240451, "longitude": 4.672744}, {"_id": "651a8ca02a622f754dfc939a", "identifier": "6381175", "label": "De la Payre \u00e0 Saint-Vincent-de-Barr\u00e8s", "streetaddress": null, "postalcode": 7210, "department": "Ard\u00e8che", "region": "Auvergne-Rh\u00f4ne-Alpes", "latitude": 44.694229, "longitude": 4.715047}, {"_id": "651a8ca12a622f754dfc939b", "identifier": "5637454", "label": "Circuit Emerveill\u00e9s par l'Ard\u00e8che", "streetaddress": "D\u00e9part du Lac de Devesset", "postalcode": 7320, "department": "Ard\u00e8che", "region": "Auvergne-Rh\u00f4ne-Alpes", "latitude": 45.055112, "longitude": 4.399835}, {"_id": "651a8ca12a622f754dfc939c", "identifier": "5578769", "label": "Circuit entre Lavandes et Gorges de l'Ard\u00e8che", "streetaddress": null, "postalcode": 7220, "department": "Ard\u00e8che", "region": "Auvergne-Rh\u00f4ne-Alpes", "latitude": 44.480459, "longitude": 4.690735}, {"_id": "651a8ca12a622f754dfc939d", "identifier": "4696481", "label": "Boucle de randonn\u00e9e \"Gorges de l'Ay de Sarras \u00e0 Ardoix\"", "streetaddress": "Place de l'\u00e9glise", "postalcode": 7370, "department": "Ard\u00e8che", "region": "Auvergne-Rh\u00f4ne-Alpes", "latitude": 45.186709, "longitude": 4.798622}, {"_id": "651a8ca12a622f754dfc939e", "identifier": "847819", "label": "Base de loisirs aquatique Eyrium", "streetaddress": "Au bord du Lac des Collanges", "postalcode": 7160, "department": "Ard\u00e8che", "region": "Auvergne-Rh\u00f4ne-Alpes", "latitude": 44.91174, "longitude": 4.464725}, {"_id": "651a8ca12a622f754dfc939f", "identifier": "829045", "label": "Route panoramique", "streetaddress": "B.P.47", "postalcode": 7301, "department": "Ard\u00e8che", "region": "Auvergne-Rh\u00f4ne-Alpes", "latitude": 45.065852, "longitude": 4.831195}, {"_id": "651a8ca12a622f754dfc93a0", "identifier": "547128", "label": "Olives et vins en C\u00e9venne Ard\u00e9choise", "streetaddress": null, "postalcode": 7230, "department": "Ard\u00e8che", "region": "Auvergne-Rh\u00f4ne-Alpes", "latitude": 44.453734, "longitude": 4.152483}, {"_id": "651a8ca12a622f754dfc93a1", "identifier": "6376465", "label": "Le Ch\u00e2teau de Rochebonne", "streetaddress": "1 place de la Gare", "postalcode": 7160, "department": "Ard\u00e8che", "region": "Auvergne-Rh\u00f4ne-Alpes", "latitude": 44.913602, "longitude": 4.428349}, {"_id": "651a8ca12a622f754dfc93a2", "identifier": "6653147", "label": "Circuit moto \"la belle Ard\u00e8che verte\"", "streetaddress": null, "postalcode": 7270, "department": "Ard\u00e8che", "region": "Auvergne-Rh\u00f4ne-Alpes", "latitude": 44.480966, "longitude": 4.69167}, {"_id": "651a8ca12a622f754dfc93a3", "identifier": "6462760", "label": "Les berges du fleuve", "streetaddress": "Parking d'acc\u00e8s voie douce", "postalcode": 7340, "department": "Ard\u00e8che", "region": "Auvergne-Rh\u00f4ne-Alpes", "latitude": 45.298289, "longitude": 4.798082}, {"_id": "651a8ca12a622f754dfc93a4", "identifier": "63036", "label": "Table d'orientation de la Tour d'Arras", "streetaddress": null, "postalcode": 7370, "department": "Ard\u00e8che", "region": "Auvergne-Rh\u00f4ne-Alpes", "latitude": 45.145484, "longitude": 4.8036}]