[{"_id": "651c8c9b6d76eee8e850d345", "identifier": "e964922d-574d-60ce-7185-501ba3f6d737", "label": "Coiff1rst", "streetaddress": "10 rue de Buci", "postalcode": 75006, "department": "Paris", "region": "\u00cele-de-France", "latitude": 48.85382329999999, "longitude": 2.337424800000008}, {"_id": "651c8c9b6d76eee8e850d346", "identifier": "4800807", "label": "Atelier cuisine au Labo Culinaire", "streetaddress": "11 avenue St\u00e9phane Mallarm\u00e9", "postalcode": 75017, "department": "Paris", "region": "\u00cele-de-France", "latitude": 48.886365, "longitude": 2.293293}, {"_id": "651c8c9b6d76eee8e850d347", "identifier": "8972c549-f3d4-3b88-a71e-501ba353abca", "label": "Mus\u00e9e des Archives Nationales - H\u00f4tel de Soubise", "streetaddress": "H\u00f4tels de Soubise et de Rohan - 60 rue des Francs Bourgeois", "postalcode": 75003, "department": "Paris", "region": "\u00cele-de-France", "latitude": 48.8600636, "longitude": 2.356864900000005}, {"_id": "651c8c9b6d76eee8e850d348", "identifier": "a849d8c4-9f26-11ea-a0c5-0050569afc27", "label": "Oliviers & Co Bercy Village", "streetaddress": "Cour Saint Emilion", "postalcode": 75012, "department": "Paris", "region": "\u00cele-de-France", "latitude": 48.8332109, "longitude": 2.3867096}, {"_id": "651c8c9c6d76eee8e850d349", "identifier": "600646cc-d27b-11eb-b3f3-0050569afc27", "label": "Au Paradis du gourmand", "streetaddress": "156 rue Raymond Losserand", "postalcode": 75014, "department": "Paris", "region": "\u00cele-de-France", "latitude": 48.830557, "longitude": 2.3112741}, {"_id": "651c8c9c6d76eee8e850d34a", "identifier": "93590dd3-b1c8-188b-8ba3-501ba4854821", "label": "Benoit Paris", "streetaddress": "20 rue Saint-Martin", "postalcode": 75004, "department": "Paris", "region": "\u00cele-de-France", "latitude": 48.85844119999999, "longitude": 2.35003729999994}, {"_id": "651c8c9c6d76eee8e850d34b", "identifier": "2f77dc63-98fc-b382-15cf-501ba4a22551", "label": "Tommy Hilfiger", "streetaddress": "65 avenue des Champs-\u00c9lys\u00e9es", "postalcode": 75008, "department": "Paris", "region": "\u00cele-de-France", "latitude": 48.8707977, "longitude": 2.304353600000013}, {"_id": "651c8c9c6d76eee8e850d34c", "identifier": "412fda95-e41e-2d03-6478-501ba40b40a5", "label": "Librairie de la Cin\u00e9math\u00e8que fran\u00e7aise", "streetaddress": "51 rue de Bercy", "postalcode": 75012, "department": "Paris", "region": "\u00cele-de-France", "latitude": 48.8372025, "longitude": 2.382722400000034}, {"_id": "651c8c9c6d76eee8e850d34d", "identifier": "9dc501c3-26f1-4279-c276-501ba473c128", "label": "March\u00e9 Al\u00e9sia", "streetaddress": "Rue de la Glaci\u00e8re", "postalcode": 75013, "department": "Paris", "region": "\u00cele-de-France", "latitude": 48.8318992, "longitude": 2.3444131999999627}, {"_id": "651c8c9c6d76eee8e850d34e", "identifier": "b6da6147-24ad-70bf-68e0-52d5462a3c8d", "label": "Le Monteverdi", "streetaddress": "5-7 rue Guisarde", "postalcode": 75006, "department": "Paris", "region": "\u00cele-de-France", "latitude": 48.851913, "longitude": 2.334968}, {"_id": "651c8c9c6d76eee8e850d34f", "identifier": "5fd7acc5-46df-00e7-a711-501ba4959121", "label": "Ma Bourgogne", "streetaddress": "19 place des Vosges", "postalcode": 75004, "department": "Paris", "region": "\u00cele-de-France", "latitude": 48.856315, "longitude": 2.364700800000037}, {"_id": "651c8c9c6d76eee8e850d350", "identifier": "42a1ace0-71fa-88c3-cc8a-501b9f8cb70c", "label": "Camping de Paris", "streetaddress": "2 all\u00e9e du Bord de l'eau", "postalcode": 75016, "department": "Paris", "region": "\u00cele-de-France", "latitude": 48.8695434, "longitude": 2.2364513999999645}, {"_id": "651c8c9c6d76eee8e850d351", "identifier": "699084", "label": "Mus\u00e9e national Picasso-Paris", "streetaddress": "5 rue de Thorigny", "postalcode": 75003, "department": "Paris", "region": "\u00cele-de-France", "latitude": 48.859683, "longitude": 2.36241}, {"_id": "651c8c9c6d76eee8e850d352", "identifier": "1a934de5-95fb-0fec-9b6e-501ba3f70dab", "label": "Piscine Dunois", "streetaddress": "70 rue Dunois", "postalcode": 75013, "department": "Paris", "region": "\u00cele-de-France", "latitude": 48.8330379, "longitude": 2.366334400000028}, {"_id": "651c8c9c6d76eee8e850d353", "identifier": "697206", "label": "Fondation Cartier pour l'art contemporain", "streetaddress": "261 boulevard Raspail", "postalcode": 75014, "department": "Paris", "region": "\u00cele-de-France", "latitude": 48.837343, "longitude": 2.331953}, {"_id": "651c8c9c6d76eee8e850d354", "identifier": "4776998", "label": "Tour Saint-Jacques", "streetaddress": "Square de la Tour Saint-Jacques", "postalcode": 75004, "department": "Paris", "region": "\u00cele-de-France", "latitude": 48.857696, "longitude": 2.349141}, {"_id": "651c8c9c6d76eee8e850d355", "identifier": "4751223", "label": "Auberge de Jeunesse Paris Yves Robert", "streetaddress": "20 esplanade Nathalie Sarraute", "postalcode": 75018, "department": "Paris", "region": "\u00cele-de-France", "latitude": 48.888115, "longitude": 2.362747}, {"_id": "651c8c9c6d76eee8e850d356", "identifier": "c2aa0bce-d5a0-11eb-b2d8-0050569afc27", "label": "Automne", "streetaddress": "11 rue Richard Lenoir", "postalcode": 75011, "department": "Paris", "region": "\u00cele-de-France", "latitude": 48.8547774, "longitude": 2.3821622}, {"_id": "651c8c9d6d76eee8e850d357", "identifier": "9ac6aa12-a063-dd3d-ce50-501ba44aec94", "label": "Ambassade d'Auvergne", "streetaddress": "22 rue du Grenier Saint-Lazare", "postalcode": 75003, "department": "Paris", "region": "\u00cele-de-France", "latitude": 48.8630507, "longitude": 2.3533592}, {"_id": "651c8c9d6d76eee8e850d358", "identifier": "88bcb95d-565b-0e6a-8dfe-501ba36cc080", "label": "Temple de Pentemont", "streetaddress": "106 rue de Grenelle", "postalcode": 75007, "department": "Paris", "region": "\u00cele-de-France", "latitude": 48.85637699999999, "longitude": 2.321646200000032}, {"_id": "651c8c9d6d76eee8e850d359", "identifier": "c5856dff-bcc3-6ed8-5ca2-501ba49dbe59", "label": "H\u00f4pital Necker - Enfants Malades", "streetaddress": "149 rue de S\u00e8vres", "postalcode": 75015, "department": "Paris", "region": "\u00cele-de-France", "latitude": 48.8463504, "longitude": 2.315448599999968}, {"_id": "651c8c9d6d76eee8e850d35a", "identifier": "677725", "label": "Rex Club", "streetaddress": "5 boulevard Poissonni\u00e8re", "postalcode": 75002, "department": "Paris", "region": "\u00cele-de-France", "latitude": 48.87064, "longitude": 2.347338}, {"_id": "651c8c9d6d76eee8e850d35b", "identifier": "704476", "label": "M\u00e9morial de la Shoah - Paris", "streetaddress": "17 rue Geoffroy l'Asnier", "postalcode": 75004, "department": "Paris", "region": "\u00cele-de-France", "latitude": 48.854918, "longitude": 2.356064}, {"_id": "651c8c9d6d76eee8e850d35c", "identifier": "286fbaea-1f90-a052-cb72-58934058a5f2", "label": "Le Platine H\u00f4tel", "streetaddress": "20 rue de l\u2019ing\u00e9nieur Robert Keller", "postalcode": 75015, "department": "Paris", "region": "\u00cele-de-France", "latitude": 48.8473656, "longitude": 2.2833023000000594}, {"_id": "651c8c9d6d76eee8e850d35d", "identifier": "197b5ce7-015b-8a37-c06b-501ba3aaf956", "label": "Jardins d'\u00c9ole", "streetaddress": "20 rue du D\u00e9partement", "postalcode": 75018, "department": "Paris", "region": "\u00cele-de-France", "latitude": 48.8866727, "longitude": 2.362613099999976}, {"_id": "651c8c9d6d76eee8e850d35e", "identifier": "440144e0-bcb1-0682-b7f9-53d773576156", "label": "Cinq-Mars", "streetaddress": "51 rue de Verneuil", "postalcode": 75007, "department": "Paris", "region": "\u00cele-de-France", "latitude": 48.8585261, "longitude": 2.3267682000000605}, {"_id": "651c8c9d6d76eee8e850d35f", "identifier": "68e64908-45f9-11ec-b1c1-0050569afc27", "label": "2 CV Paris Visite", "streetaddress": "NC", "postalcode": 75004, "department": "Paris", "region": "\u00cele-de-France", "latitude": 48.8533249, "longitude": 2.3488596}, {"_id": "651c8c9d6d76eee8e850d360", "identifier": "4736645", "label": "Groupe Meli\u00e1 Hotels International France", "streetaddress": "20, rue du sentier", "postalcode": 75002, "department": "Paris", "region": "\u00cele-de-France", "latitude": 48.869447, "longitude": 2.34621}, {"_id": "651c8c9d6d76eee8e850d361", "identifier": "9bbcda2c-b3c6-e6ee-a552-501ba056257f", "label": "H\u00f4tel de Banville - Emeraude Hotels", "streetaddress": "166 boulevard Berthier", "postalcode": 75017, "department": "Paris", "region": "\u00cele-de-France", "latitude": 48.8864038, "longitude": 2.2949442999999974}, {"_id": "651c8c9d6d76eee8e850d362", "identifier": "c31497c6-4764-b2d6-3416-501ba49def1c", "label": "H\u00f4pital Saint-Louis", "streetaddress": "1 avenue Claude Vellefaux", "postalcode": 75010, "department": "Paris", "region": "\u00cele-de-France", "latitude": 48.873494, "longitude": 2.369784999999979}, {"_id": "651c8c9d6d76eee8e850d363", "identifier": "1f4ac3e6-6114-b2cb-de68-501ba48c5ae6", "label": "La pharma de R\u00e9pu", "streetaddress": "5 place de la R\u00e9publique", "postalcode": 75003, "department": "Paris", "region": "\u00cele-de-France", "latitude": 48.8668507, "longitude": 2.363914799999975}, {"_id": "651c8c9e6d76eee8e850d364", "identifier": "441935da-b499-e2f9-324b-501ba0d6c11b", "label": "Le Petit Beaumarchais Hotel & Spa", "streetaddress": "8 boulevard Beaumarchais", "postalcode": 75011, "department": "Paris", "region": "\u00cele-de-France", "latitude": 48.8548035, "longitude": 2.368722899999966}, {"_id": "651c8c9e6d76eee8e850d365", "identifier": "f195646e-ee33-a946-3b73-501ba0f8fc63", "label": "Eiffel Rive Gauche by Hiphophostels", "streetaddress": "6 rue du Gros Caillou", "postalcode": 75007, "department": "Paris", "region": "\u00cele-de-France", "latitude": 48.8574467, "longitude": 2.302452399999993}, {"_id": "651c8c9e6d76eee8e850d366", "identifier": "aa9cf57e-d6cd-8f17-353e-501ba3edc1f7", "label": "P\u00e9niche Antipode", "streetaddress": "55 quai de la Seine", "postalcode": 75019, "department": "Paris", "region": "\u00cele-de-France", "latitude": 48.8871303, "longitude": 2.3754754000000275}, {"_id": "651c8c9e6d76eee8e850d367", "identifier": "3bb46749-2d9f-8b67-38f4-57f658e5817f", "label": "Manko Paris", "streetaddress": "15 avenue Montaigne", "postalcode": 75008, "department": "Paris", "region": "\u00cele-de-France", "latitude": 48.8656939, "longitude": 2.3025519999999915}, {"_id": "651c8c9e6d76eee8e850d368", "identifier": "678213", "label": "Djoon", "streetaddress": "22 Boulevard Vincent Auriol", "postalcode": 75013, "department": "Paris", "region": "\u00cele-de-France", "latitude": 48.836673, "longitude": 2.371651}, {"_id": "651c8c9e6d76eee8e850d369", "identifier": "543f8bc6-d5d3-11e7-9af8-0050569a22ea", "label": "My Nest Inn Apartments", "streetaddress": "76 rue du Cardinal Lemoine", "postalcode": 75005, "department": "Paris", "region": "\u00cele-de-France", "latitude": 48.8447033, "longitude": 2.349393100000043}, {"_id": "651c8c9e6d76eee8e850d36a", "identifier": "79d37a60-d136-11ec-b26b-0050569afc27", "label": "L'Acad\u00e9mie du climat", "streetaddress": "2 place Baudoyer", "postalcode": 75004, "department": "Paris", "region": "\u00cele-de-France", "latitude": 48.85614835, "longitude": 2.355781938999999}, {"_id": "651c8c9e6d76eee8e850d36b", "identifier": "d7474273-3754-16a5-aad9-501ba38e2c3c", "label": "Palais de la d\u00e9couverte", "streetaddress": "Avenue Franklin D. Roosevelt", "postalcode": 75008, "department": "Paris", "region": "\u00cele-de-France", "latitude": 48.86622934306983, "longitude": 2.310451049737594}, {"_id": "651c8c9e6d76eee8e850d36c", "identifier": "b8034338-d184-518d-bc36-50210f1309ac", "label": "La Boutique du Centre Pompidou", "streetaddress": "Rue Beaubourg, c\u00f4t\u00e9 Saint-Merri (jusqu'en mai 2021)", "postalcode": 75004, "department": "Paris", "region": "\u00cele-de-France", "latitude": 48.8608333, "longitude": 2.3516667000000098}, {"_id": "651c8c9e6d76eee8e850d36d", "identifier": "d888d74a-1187-d6e7-084f-501ba31b3bf9", "label": "Centre culturel alg\u00e9rien", "streetaddress": "171 rue de la Croix Nivert", "postalcode": 75015, "department": "Paris", "region": "\u00cele-de-France", "latitude": 48.8397081, "longitude": 2.2901289000000133}, {"_id": "651c8c9e6d76eee8e850d36e", "identifier": "42bb4530-b754-11ed-a66b-0050569afc27", "label": "ProximityStore", "streetaddress": "NC", "postalcode": 75004, "department": "Paris", "region": "\u00cele-de-France", "latitude": 48.8533249, "longitude": 2.3488596}, {"_id": "651c8c9e6d76eee8e850d36f", "identifier": "5d281415-8130-f6b2-06b2-501ba040df1d", "label": "H\u00f4tel Raphael", "streetaddress": "17 avenue Kl\u00e9ber", "postalcode": 75116, "department": "Paris", "region": "\u00cele-de-France", "latitude": 48.8712251, "longitude": 2.2933616999999913}, {"_id": "651c8c9e6d76eee8e850d370", "identifier": "3afcb986-ad59-11e9-adeb-0050569afc27", "label": "Sacr\u00e9 Frenchy !", "streetaddress": "58 boulevard de S\u00e9bastopol", "postalcode": 75003, "department": "Paris", "region": "\u00cele-de-France", "latitude": 48.8632, "longitude": 2.3510599999999613}, {"_id": "651c8c9e6d76eee8e850d371", "identifier": "7d72acf8-a1b8-11eb-9d68-0050569afc27", "label": "La Rhumerie", "streetaddress": "166 boulevard Saint-Germain", "postalcode": 75006, "department": "Paris", "region": "\u00cele-de-France", "latitude": 48.853429, "longitude": 2.335553}, {"_id": "651c8c9f6d76eee8e850d372", "identifier": "751f02ea-1ba5-bfd2-3708-501ba0df519b", "label": "H\u00f4tel Costes", "streetaddress": "239 rue Saint-Honor\u00e9", "postalcode": 75001, "department": "Paris", "region": "\u00cele-de-France", "latitude": 48.86674619999999, "longitude": 2.3281147999999803}, {"_id": "651c8c9f6d76eee8e850d373", "identifier": "6ee40211-8a61-a3c3-8183-501ba4725097", "label": "Caf\u00e9 des Mus\u00e9es", "streetaddress": "49 rue de Turenne", "postalcode": 75003, "department": "Paris", "region": "\u00cele-de-France", "latitude": 48.8581345, "longitude": 2.3644239999999854}, {"_id": "651c8c9f6d76eee8e850d374", "identifier": "6513416", "label": "Madame Arthur", "streetaddress": "75 rue des Martyrs", "postalcode": 75018, "department": "Paris", "region": "\u00cele-de-France", "latitude": 48.882519, "longitude": 2.339568}, {"_id": "651c8c9f6d76eee8e850d375", "identifier": "913974ee-2371-7dff-1d02-501ba0eb5027", "label": "Le Royal Monceau Raffles Paris", "streetaddress": "35-37 avenue Hoche", "postalcode": 75008, "department": "Paris", "region": "\u00cele-de-France", "latitude": 48.8758803, "longitude": 2.3003175000000056}, {"_id": "651c8c9f6d76eee8e850d376", "identifier": "b887d495-35ab-a648-5038-501b9f8f1669", "label": "Villa Montparnasse - Machefert Group", "streetaddress": "2 rue Boulard", "postalcode": 75014, "department": "Paris", "region": "\u00cele-de-France", "latitude": 48.83494229999999, "longitude": 2.3296559000000343}, {"_id": "651c8c9f6d76eee8e850d377", "identifier": "71d63620-5069-ead1-e26b-501b9f0e1711", "label": "La maison des mines et des ponts et chauss\u00e9es", "streetaddress": "270 rue Saint-Jacques", "postalcode": 75005, "department": "Paris", "region": "\u00cele-de-France", "latitude": 48.8419174, "longitude": 2.341097399999967}, {"_id": "651c8c9f6d76eee8e850d378", "identifier": "c785bfc8-80a5-a11a-3139-501ba38941a6", "label": "Th\u00e9\u00e2tre Marigny", "streetaddress": "Carr\u00e9 Marigny", "postalcode": 75008, "department": "Paris", "region": "\u00cele-de-France", "latitude": 48.8692292, "longitude": 2.313718300000005}, {"_id": "651c8c9f6d76eee8e850d379", "identifier": "e1c03f01-306f-a8a3-75a9-51ffae6715da", "label": "Passage Verdeau", "streetaddress": "6 rue de la Grange-Bateli\u00e8re", "postalcode": 75003, "department": "Paris", "region": "\u00cele-de-France", "latitude": 48.8731452, "longitude": 2.342089299999998}, {"_id": "651c8c9f6d76eee8e850d37a", "identifier": "50738965-5412-703a-3c14-501ba49f6eaa", "label": "Les Cailloux", "streetaddress": "58 rue des Cinq Diamants", "postalcode": 75013, "department": "Paris", "region": "\u00cele-de-France", "latitude": 48.8276773, "longitude": 2.3493055999999797}, {"_id": "651c8c9f6d76eee8e850d37b", "identifier": "81e671bf-9a8f-7eee-cac9-501ba4cf5a87", "label": "Zo", "streetaddress": "13 rue Montalivet", "postalcode": 75008, "department": "Paris", "region": "\u00cele-de-France", "latitude": 48.87120059999999, "longitude": 2.3181913999999324}, {"_id": "651c8c9f6d76eee8e850d37c", "identifier": "aa35ec28-ae55-bec9-1410-51b5c1a32fd9", "label": "La Cr\u00e8merie", "streetaddress": "9 rue Quatre Vents", "postalcode": 75006, "department": "Paris", "region": "\u00cele-de-France", "latitude": 48.8517072, "longitude": 2.337806300000011}, {"_id": "651c8c9f6d76eee8e850d37d", "identifier": "6546528", "label": "Galerie Vivienne", "streetaddress": "4 Rue des Petits Champs", "postalcode": 75002, "department": "Paris", "region": "\u00cele-de-France", "latitude": 48.866215, "longitude": 2.339481}, {"_id": "651c8c9f6d76eee8e850d37e", "identifier": "5cb56b74-7ee9-1593-074b-501ba39b363e", "label": "Au bonheur du jour", "streetaddress": "1 rue Chabanais", "postalcode": 75002, "department": "Paris", "region": "\u00cele-de-France", "latitude": 48.8669865, "longitude": 2.3365861}, {"_id": "651c8c9f6d76eee8e850d37f", "identifier": "1b7475d8-24f1-90bf-cf4c-501ba41f9b1f", "label": "Le R\u00e9veil du Xe", "streetaddress": "35 rue du Ch\u00e2teau-d\u2019Eau", "postalcode": 75010, "department": "Paris", "region": "\u00cele-de-France", "latitude": 48.8712118, "longitude": 2.358000899999979}, {"_id": "651c8c9f6d76eee8e850d380", "identifier": "5278f96d-64c2-e7d4-1e2b-50ec16de4d6c", "label": "March\u00e9 Alibert", "streetaddress": "Rue Alibert", "postalcode": 75010, "department": "Paris", "region": "\u00cele-de-France", "latitude": 48.8716489, "longitude": 2.367672099999936}, {"_id": "651c8ca06d76eee8e850d381", "identifier": "5778447", "label": "H\u00f4tel de la Marine", "streetaddress": "2 Place de la Concorde", "postalcode": 75008, "department": "Paris", "region": "\u00cele-de-France", "latitude": 48.86677, "longitude": 2.322981}, {"_id": "651c8ca06d76eee8e850d382", "identifier": "ada357b8-bb08-6e07-1f3d-501ba4344555", "label": "Marrakech", "streetaddress": "12 rue d'Armaill\u00e9", "postalcode": 75017, "department": "Paris", "region": "\u00cele-de-France", "latitude": 48.87772649999999, "longitude": 2.2917872000000443}, {"_id": "651c8ca06d76eee8e850d383", "identifier": "d4eb6530-f52e-4234-5d6f-501b9fde715c", "label": "L'H\u00f4tel du Collectionneur", "streetaddress": "51-57 rue de Courcelles", "postalcode": 75008, "department": "Paris", "region": "\u00cele-de-France", "latitude": 48.8768813, "longitude": 2.3072056999999404}, {"_id": "651c8ca06d76eee8e850d384", "identifier": "e5a7fe1a-4b0b-8909-0346-50ebfbb7e1b8", "label": "March\u00e9 Saint-Honor\u00e9", "streetaddress": "Place du March\u00e9 Saint-Honor\u00e9", "postalcode": 75001, "department": "Paris", "region": "\u00cele-de-France", "latitude": 48.866912, "longitude": 2.3321813999999677}, {"_id": "651c8ca06d76eee8e850d385", "identifier": "53fd8a77-d555-5387-35aa-570f4ccc36a7", "label": "Eden Lodge Paris", "streetaddress": "175 rue de Charonne", "postalcode": 75011, "department": "Paris", "region": "\u00cele-de-France", "latitude": 48.8561385, "longitude": 2.3917586999999685}, {"_id": "651c8ca06d76eee8e850d386", "identifier": "f2b52f43-a472-14e5-7615-501ba3aafc96", "label": "Spa Nuxe", "streetaddress": "32-34 rue Montorgueil", "postalcode": 75002, "department": "Paris", "region": "\u00cele-de-France", "latitude": 48.8639198, "longitude": 2.3465181000000257}, {"_id": "651c8ca06d76eee8e850d387", "identifier": "4ceefecb-a7e5-0086-508f-501ba02ebc74", "label": "Citadines Montmartre Paris", "streetaddress": "16 avenue Rachel", "postalcode": 75018, "department": "Paris", "region": "\u00cele-de-France", "latitude": 48.88517119999999, "longitude": 2.3309520999999904}, {"_id": "651c8ca06d76eee8e850d388", "identifier": "eefc0ec2-f1e6-5f80-9636-501ba4a68ce7", "label": "RATP", "streetaddress": "30 rue Championnet", "postalcode": 75018, "department": "Paris", "region": "\u00cele-de-France", "latitude": 48.8955014, "longitude": 2.3499564}, {"_id": "651c8ca06d76eee8e850d389", "identifier": "58429b43-5cbf-79a3-74eb-501ba3a95102", "label": "Piscine Georges Hermant", "streetaddress": "15 rue David d'Angers", "postalcode": 75019, "department": "Paris", "region": "\u00cele-de-France", "latitude": 48.8827795, "longitude": 2.39043259999994}, {"_id": "651c8ca06d76eee8e850d38a", "identifier": "5383736", "label": "\u00c9cole du Breuil", "streetaddress": "Route de la Ferme Bois de Vincennes", "postalcode": 75012, "department": "Paris", "region": "\u00cele-de-France", "latitude": 48.824063, "longitude": 2.459769}, {"_id": "651c8ca06d76eee8e850d38b", "identifier": "abe49ded-728d-bba6-b27b-50ab94eec6e6", "label": "Prada", "streetaddress": "7 rue de Grenelle", "postalcode": 75006, "department": "Paris", "region": "\u00cele-de-France", "latitude": 48.8576511, "longitude": 2.3171179}, {"_id": "651c8ca06d76eee8e850d38c", "identifier": "5607456", "label": "Fondation GoodPlanet", "streetaddress": "1 Carrefour de Longchamp", "postalcode": 75016, "department": "Paris", "region": "\u00cele-de-France", "latitude": 48.865118, "longitude": 2.237971}, {"_id": "651c8ca06d76eee8e850d38d", "identifier": "5a999fa4-d6bb-8b55-3753-501ba31f8483", "label": "Bassin de La Villette", "streetaddress": "Quai de la Seine", "postalcode": 75019, "department": "Paris", "region": "\u00cele-de-France", "latitude": 48.8866796, "longitude": 2.3745539000000235}, {"_id": "651c8ca16d76eee8e850d38e", "identifier": "20709566-a536-11eb-abe0-0050569afc27", "label": "Square Emmanuel Fleury", "streetaddress": "40 rue Le Vau", "postalcode": 75020, "department": "Paris", "region": "\u00cele-de-France", "latitude": 48.870369800000006, "longitude": 2.4117691104709458}, {"_id": "651c8ca16d76eee8e850d38f", "identifier": "ac9430e7-9cd4-dc04-08ac-501ba38bfa8a", "label": "Mus\u00e9e de la Sculpture en plein air", "streetaddress": "Quai Saint Bernard - Square Tino Rossi", "postalcode": 75005, "department": "Paris", "region": "\u00cele-de-France", "latitude": 48.846853, "longitude": 2.360944199999949}, {"_id": "651c8ca16d76eee8e850d390", "identifier": "13436418-c454-005b-5fbb-501ba3a78ad9", "label": "Piscine Ch\u00e2teau-Landon", "streetaddress": "31 rue Ch\u00e2teau Landon", "postalcode": 75010, "department": "Paris", "region": "\u00cele-de-France", "latitude": 48.8832815, "longitude": 2.3638585999999577}, {"_id": "651c8ca16d76eee8e850d391", "identifier": "ef6b9da6-93b7-2892-5d7c-501ba06af2d0", "label": "Armoni H\u00f4tel", "streetaddress": "7 villa Berthier", "postalcode": 75017, "department": "Paris", "region": "\u00cele-de-France", "latitude": 48.88517359999999, "longitude": 2.2929827000000387}, {"_id": "651c8ca16d76eee8e850d392", "identifier": "4b323efc-e87b-fa08-eab9-501ba44a5a43", "label": "Village Suisse Paris", "streetaddress": "78 avenue de Suffren", "postalcode": 75015, "department": "Paris", "region": "\u00cele-de-France", "latitude": 48.85170899743758, "longitude": 2.2997730329165904}, {"_id": "651c8ca16d76eee8e850d393", "identifier": "646ccd36-a6a0-582a-6085-52df9aa5c27d", "label": "Paris visite", "streetaddress": "NC", "postalcode": 75004, "department": "Paris", "region": "\u00cele-de-France", "latitude": 48.8533249, "longitude": 2.3488596}, {"_id": "651c8ca16d76eee8e850d394", "identifier": "6337154", "label": "Visite tactile dans l'exposition \"L\u2019\u00c9quipe de Cardiff de Robert Delaunay\"- Mus\u00e9e d'Art Moderne - adapt\u00e9e au public en situation de handicap visuel", "streetaddress": "11 avenue du Pr\u00e9sident Wilson", "postalcode": 75016, "department": "Paris", "region": "\u00cele-de-France", "latitude": 48.864654, "longitude": 2.297714}, {"_id": "651c8ca16d76eee8e850d395", "identifier": "11fb8ba2-23b5-2f57-e837-501ba30f8399", "label": "Mus\u00e9e national Gustave Moreau", "streetaddress": "14 rue de la Rochefoucauld", "postalcode": 75009, "department": "Paris", "region": "\u00cele-de-France", "latitude": 48.8779704, "longitude": 2.334450400000037}, {"_id": "651c8ca16d76eee8e850d396", "identifier": "14168454-30c6-11eb-ac85-0050569afc27", "label": "Auditorium Edmond J. Safra du M\u00e9morial de la Shoah", "streetaddress": "17 rue Geoffroy l'Asnier", "postalcode": 75004, "department": "Paris", "region": "\u00cele-de-France", "latitude": 48.8552046, "longitude": 2.3558261000000584}, {"_id": "651c8ca16d76eee8e850d397", "identifier": "d1d1ac84-4856-05a0-4cec-551526479f24", "label": "Pierre Sang in Oberkampf", "streetaddress": "55 rue Oberkampf", "postalcode": 75011, "department": "Paris", "region": "\u00cele-de-France", "latitude": 48.8647784, "longitude": 2.3722957999999608}, {"_id": "651c8ca16d76eee8e850d398", "identifier": "adb1e78c-37a4-6d23-6dd6-501ba3d63d41", "label": "Square Georges Cain", "streetaddress": "8 rue Payenne", "postalcode": 75003, "department": "Paris", "region": "\u00cele-de-France", "latitude": 48.8580453, "longitude": 2.362264699999969}, {"_id": "651c8ca16d76eee8e850d399", "identifier": "c2ba0b0c-7007-40fd-2f55-506ef2b18698", "label": "Pizza Chic", "streetaddress": "13 rue de M\u00e9zi\u00e8res", "postalcode": 75006, "department": "Paris", "region": "\u00cele-de-France", "latitude": 48.85023820000001, "longitude": 2.330405799999994}, {"_id": "651c8ca16d76eee8e850d39a", "identifier": "eb258fa9-ba69-8545-76f7-501ba355f109", "label": "Maison La Roche", "streetaddress": "10 square du Docteur Blanche (entr\u00e9e par le 55 rue du Docteur Blanche)", "postalcode": 75016, "department": "Paris", "region": "\u00cele-de-France", "latitude": 48.85209709999999, "longitude": 2.265172200000052}, {"_id": "651c8ca26d76eee8e850d39b", "identifier": "be6e3aba-5a50-4d59-219e-501ba3544e69", "label": "M\u00e9morial de la Guerre d'Alg\u00e9rie et des combats Maroc - Tunisie", "streetaddress": "Quai Branly - Entre le Pont d\u2019I\u00e9na et l\u2019avenue de la Bourdonnais", "postalcode": 75007, "department": "Paris", "region": "\u00cele-de-France", "latitude": 48.85985564148101, "longitude": 2.2941423638626475}, {"_id": "651c8ca26d76eee8e850d39c", "identifier": "439302c0-0a2f-269f-fba3-50210d4e3a52", "label": "Grand Appetit", "streetaddress": "9 rue de la Cerisaie", "postalcode": 75004, "department": "Paris", "region": "\u00cele-de-France", "latitude": 48.8518303, "longitude": 2.3663596999999754}, {"_id": "651c8ca26d76eee8e850d39d", "identifier": "68dccb87-4965-6a8b-e0a7-501ba4118ec0", "label": "agn\u00e8s b.", "streetaddress": "3 et 6 rue du Jour", "postalcode": 75001, "department": "Paris", "region": "\u00cele-de-France", "latitude": 48.8636846, "longitude": 2.3446675999999798}, {"_id": "651c8ca26d76eee8e850d39e", "identifier": "885c6395-c310-f41f-cd90-501ba489abcf", "label": "Pr\u00e9sence africaine", "streetaddress": "25 bis rue des \u00c9coles", "postalcode": 75005, "department": "Paris", "region": "\u00cele-de-France", "latitude": 48.8486217, "longitude": 2.3485061000000087}, {"_id": "651c8ca26d76eee8e850d39f", "identifier": "6527365", "label": "Paradox Museum", "streetaddress": "38 Bd des Italiens", "postalcode": 75009, "department": "Paris", "region": "\u00cele-de-France", "latitude": 48.871813, "longitude": 2.335822}, {"_id": "651c8ca26d76eee8e850d3a0", "identifier": "780c67d5-4cf3-7112-ec83-501ba47f1c06", "label": "Au Pied de Cochon", "streetaddress": "6 rue Coquilli\u00e8re", "postalcode": 75001, "department": "Paris", "region": "\u00cele-de-France", "latitude": 48.8634609, "longitude": 2.343744000000015}, {"_id": "651c8ca26d76eee8e850d3a1", "identifier": "1ba62b4f-82db-19e5-153f-51f6834156f1", "label": "Au diable des lombards", "streetaddress": "64 rue des Lombards", "postalcode": 75001, "department": "Paris", "region": "\u00cele-de-France", "latitude": 48.8596586, "longitude": 2.348580599999991}, {"_id": "651c8ca26d76eee8e850d3a2", "identifier": "c986fd7f-b751-2f58-a934-501b9fd4c4f5", "label": "Sofitel Le Scribe Paris", "streetaddress": "1 rue Scribe", "postalcode": 75009, "department": "Paris", "region": "\u00cele-de-France", "latitude": 48.8702542, "longitude": 2.329936900000007}, {"_id": "651c8ca26d76eee8e850d3a3", "identifier": "3119c86b-402c-271d-be10-501ba40d4677", "label": "Adidas Originals Store Le Marais", "streetaddress": "3 ter rue des Rosiers", "postalcode": 75004, "department": "Paris", "region": "\u00cele-de-France", "latitude": 48.8564436, "longitude": 2.3608401000000185}, {"_id": "651c8ca26d76eee8e850d3a4", "identifier": "95d3b856-36d2-4a1c-df75-501ba3c8f2d7", "label": "Mus\u00e9e national de l\u2019histoire de l\u2019immigration", "streetaddress": "Palais de la Porte Dor\u00e9e - 293 avenue Daumesnil", "postalcode": 75012, "department": "Paris", "region": "\u00cele-de-France", "latitude": 48.8349041, "longitude": 2.408507800000052}, {"_id": "651c8ca26d76eee8e850d3a5", "identifier": "990a90cc-edd2-38db-d932-501ba3a0c915", "label": "Ateliers d'artistes de Belleville", "streetaddress": "1 rue Francis Picabia", "postalcode": 75020, "department": "Paris", "region": "\u00cele-de-France", "latitude": 48.8696894, "longitude": 2.3821027000000186}, {"_id": "651c8ca26d76eee8e850d3a6", "identifier": "6191c97e-3d8c-4002-5f5f-501ba4b97e0a", "label": "Le Beurre Noisette", "streetaddress": "68 rue Vasco de Gama", "postalcode": 75015, "department": "Paris", "region": "\u00cele-de-France", "latitude": 48.8357173, "longitude": 2.2848443000000316}, {"_id": "651c8ca26d76eee8e850d3a7", "identifier": "3831b00a-2f3f-12ab-758d-501ba0520610", "label": "Kyriad Paris 10 - Canal Saint-Martin - R\u00e9publique", "streetaddress": "30 rue Lucien Sampaix", "postalcode": 75010, "department": "Paris", "region": "\u00cele-de-France", "latitude": 48.8727963, "longitude": 2.3612868000000162}, {"_id": "651c8ca36d76eee8e850d3a8", "identifier": "1a25585f-1d97-8295-0768-517534076c19", "label": "Yen", "streetaddress": "22 rue Saint-Beno\u00eet", "postalcode": 75006, "department": "Paris", "region": "\u00cele-de-France", "latitude": 48.85448580000001, "longitude": 2.3327748000000383}, {"_id": "651c8ca36d76eee8e850d3a9", "identifier": "a6f28482-29ee-c8e7-8c0f-506d9cdd11b0", "label": "Photo Pyramides", "streetaddress": "14 rue des Pyramides", "postalcode": 75001, "department": "Paris", "region": "\u00cele-de-France", "latitude": 48.865151, "longitude": 2.3331991999999673}, {"_id": "651c8ca36d76eee8e850d3aa", "identifier": "b2658627-61fd-4436-90ef-501ba0ccf28e", "label": "Timhotel Paris Gare de l'Est", "streetaddress": "27 rue des R\u00e9collets", "postalcode": 75010, "department": "Paris", "region": "\u00cele-de-France", "latitude": 48.874941, "longitude": 2.3602236000000403}, {"_id": "651c8ca36d76eee8e850d3ab", "identifier": "be6e5a9b-ab93-b505-2e03-50c21c7f1a8c", "label": "Antik Batik", "streetaddress": "19 rue des Minimes", "postalcode": 75003, "department": "Paris", "region": "\u00cele-de-France", "latitude": 48.8573274, "longitude": 2.3650139999999737}, {"_id": "651c8ca36d76eee8e850d3ac", "identifier": "dfe879d2-d2f0-11e9-9c7b-0050569afc27", "label": "P\u00e2tisserie Stohrer", "streetaddress": "51 rue Montorgueil", "postalcode": 75002, "department": "Paris", "region": "\u00cele-de-France", "latitude": 48.8642, "longitude": 2.3465300000000298}, {"_id": "651c8ca36d76eee8e850d3ad", "identifier": "ec8925ec-eaaf-8939-eb3e-579b79a5edff", "label": "L'Auberge bressane", "streetaddress": "16 avenue de la Motte-Picquet", "postalcode": 75007, "department": "Paris", "region": "\u00cele-de-France", "latitude": 48.8565562, "longitude": 2.308503900000005}, {"_id": "651c8ca36d76eee8e850d3ae", "identifier": "ea4ed7f6-d5c6-11eb-a784-0050569afc27", "label": "The Spa at Mandarin Oriental Paris", "streetaddress": "251 rue Saint-Honor\u00e9", "postalcode": 75001, "department": "Paris", "region": "\u00cele-de-France", "latitude": 48.8671581, "longitude": 2.3269714000000477}, {"_id": "651c8ca36d76eee8e850d3af", "identifier": "bd54d99b-03f1-6a97-4e4a-52f9fa7d265e", "label": "Brow Bar Benefit", "streetaddress": "Sephora - 75 rue de Rivoli", "postalcode": 75001, "department": "Paris", "region": "\u00cele-de-France", "latitude": 48.8599077, "longitude": 2.34372170000006}, {"_id": "651c8ca36d76eee8e850d3b0", "identifier": "62aea1d2-43f4-cf69-16bc-501ba43ebfb2", "label": "Vagenende", "streetaddress": "142 boulevard Saint-Germain", "postalcode": 75006, "department": "Paris", "region": "\u00cele-de-France", "latitude": 48.8529656, "longitude": 2.3374182999999675}, {"_id": "651c8ca36d76eee8e850d3b1", "identifier": "58310c52-7234-a191-f4fb-50b61fb4af36", "label": "Le Boudoir", "streetaddress": "25 rue du Colis\u00e9e", "postalcode": 75008, "department": "Paris", "region": "\u00cele-de-France", "latitude": 48.8710142, "longitude": 2.3090217999999822}, {"_id": "651c8ca36d76eee8e850d3b2", "identifier": "17162ebd-5e6e-d2f1-7c49-501b9f3c23bd", "label": "Terrass\u2019\u2019 Hotel", "streetaddress": "12-14 rue Joseph de Maistre", "postalcode": 75018, "department": "Paris", "region": "\u00cele-de-France", "latitude": 48.886504, "longitude": 2.3329694000000245}, {"_id": "651c8ca36d76eee8e850d3b3", "identifier": "aca2ef74-327b-11e8-9f10-0050569a22ea", "label": "TeamJPA Golf \u00e0 Paris", "streetaddress": "Maison des associations - 11 rue Caillaux", "postalcode": 75013, "department": "Paris", "region": "\u00cele-de-France", "latitude": 48.822503, "longitude": 2.3611292000000503}, {"_id": "651c8ca36d76eee8e850d3b4", "identifier": "3d30a111-1c72-5711-0d8b-51ffcd8fb765", "label": "La Closerie des Lilas", "streetaddress": "171 boulevard du Montparnasse", "postalcode": 75006, "department": "Paris", "region": "\u00cele-de-France", "latitude": 48.84010360000001, "longitude": 2.3359289999999646}, {"_id": "651c8ca36d76eee8e850d3b5", "identifier": "a9ebdac6-dc0d-11ec-8856-0050569afc27", "label": "H\u00f4tel Moderniste", "streetaddress": "5 rue de Langeac", "postalcode": 75015, "department": "Paris", "region": "\u00cele-de-France", "latitude": 48.83578401004698, "longitude": 2.2923370275145203}, {"_id": "651c8ca36d76eee8e850d3b6", "identifier": "776778", "label": "Parc de Belleville", "streetaddress": "47 rue des Couronnes", "postalcode": 75020, "department": "Paris", "region": "\u00cele-de-France", "latitude": 48.870256, "longitude": 2.384822}, {"_id": "651c8ca46d76eee8e850d3b7", "identifier": "e33ab609-5645-4b09-a8ed-501ba39d3934", "label": "Observatoire de Paris", "streetaddress": "61 avenue de l'Observatoire", "postalcode": 75014, "department": "Paris", "region": "\u00cele-de-France", "latitude": 48.8376631, "longitude": 2.335781900000029}, {"_id": "651c8ca46d76eee8e850d3b8", "identifier": "e149ae04-cea7-11eb-833a-0050569afc27", "label": "Tour de la biodiversit\u00e9 - M6B2", "streetaddress": "Place Farhat Hached", "postalcode": 75013, "department": "Paris", "region": "\u00cele-de-France", "latitude": 48.8260325, "longitude": 2.380892713940747}, {"_id": "651c8ca46d76eee8e850d3b9", "identifier": "679710", "label": "Forest Hill Paris La Villette", "streetaddress": "28 Avenue Corentin Cariou", "postalcode": 75019, "department": "Paris", "region": "\u00cele-de-France", "latitude": 48.896778, "longitude": 2.385199}, {"_id": "651c8ca46d76eee8e850d3ba", "identifier": "ad5757c8-8f40-3be2-064e-546dd426d6b2", "label": "Mozza & Co", "streetaddress": "Berges de Seine - 11 quai Anatole France", "postalcode": 75007, "department": "Paris", "region": "\u00cele-de-France", "latitude": 48.86148953314129, "longitude": 2.32366164788516}, {"_id": "651c8ca46d76eee8e850d3bb", "identifier": "31c005e6-17bc-14e3-15bf-501ba3c87f88", "label": "Th\u00e9\u00e2tre Rive Gauche", "streetaddress": "6 rue de la Ga\u00eet\u00e9", "postalcode": 75014, "department": "Paris", "region": "\u00cele-de-France", "latitude": 48.8408036, "longitude": 2.324436099999957}, {"_id": "651c8ca46d76eee8e850d3bc", "identifier": "cd742817-5412-0736-a328-501ba3296a3c", "label": "Le Palace", "streetaddress": "8 rue du Faubourg Montmartre", "postalcode": 75009, "department": "Paris", "region": "\u00cele-de-France", "latitude": 48.8720076, "longitude": 2.34318380000002}, {"_id": "651c8ca46d76eee8e850d3bd", "identifier": "5214e9ff-c7bb-e0e3-94ea-584a74ac610d", "label": "My Urban Experience", "streetaddress": "NC", "postalcode": 75004, "department": "Paris", "region": "\u00cele-de-France", "latitude": 48.8533249, "longitude": 2.3488596}, {"_id": "651c8ca46d76eee8e850d3be", "identifier": "8d93e4f8-7da5-11eb-b33f-0050569afc27", "label": "Tornabuoni Art Paris", "streetaddress": "16 avenue Matignon", "postalcode": 75008, "department": "Paris", "region": "\u00cele-de-France", "latitude": 48.8708524, "longitude": 2.3135879}, {"_id": "651c8ca46d76eee8e850d3bf", "identifier": "3fb58f01-5154-f0d1-071d-501ba4455531", "label": "L'Empire des Th\u00e9s", "streetaddress": "101 avenue d'Ivry", "postalcode": 75013, "department": "Paris", "region": "\u00cele-de-France", "latitude": 48.8252146, "longitude": 2.3616329999999834}, {"_id": "651c8ca46d76eee8e850d3c0", "identifier": "4361ff0e-e8d0-11ec-8f40-0050569afc27", "label": "Rendez-vous amoureux \u00e0 Paris par Artybot", "streetaddress": "NC", "postalcode": 75004, "department": "Paris", "region": "\u00cele-de-France", "latitude": 48.8533249, "longitude": 2.3488596}, {"_id": "651c8ca46d76eee8e850d3c1", "identifier": "24c86a3f-3a26-41b5-0abb-501ba44222c3", "label": "Stock Jonak", "streetaddress": "44 boulevard S\u00e9bastopol", "postalcode": 75003, "department": "Paris", "region": "\u00cele-de-France", "latitude": 48.862279, "longitude": 2.3505294000000276}, {"_id": "651c8ca46d76eee8e850d3c2", "identifier": "d6b20084-a6f0-4387-a00e-501ba3963d59", "label": "Institut Cervantes", "streetaddress": "7 rue Quentin Bauchart", "postalcode": 75008, "department": "Paris", "region": "\u00cele-de-France", "latitude": 48.8691952, "longitude": 2.2996994000000086}, {"_id": "651c8ca46d76eee8e850d3c3", "identifier": "1a0bcec4-0eff-c904-034c-5140b0805311", "label": "Bonne nuit Paris", "streetaddress": "63 rue Charlot", "postalcode": 75003, "department": "Paris", "region": "\u00cele-de-France", "latitude": 48.8637842, "longitude": 2.363438999999971}, {"_id": "651c8ca46d76eee8e850d3c4", "identifier": "c5e1e504-59e4-6ba2-c297-5174fe39e5a5", "label": "Guibine Op\u00e9ra", "streetaddress": "44 rue Sainte-Anne", "postalcode": 75002, "department": "Paris", "region": "\u00cele-de-France", "latitude": 48.8673021, "longitude": 2.3360728999999765}, {"_id": "651c8ca56d76eee8e850d3c5", "identifier": "b6f281f0-7575-11ed-a5e7-0050569afc27", "label": "Paris en Mobylette", "streetaddress": "10 impasse de la Ga\u00eft\u00e9", "postalcode": 75014, "department": "Paris", "region": "\u00cele-de-France", "latitude": 48.84034799823553, "longitude": 2.3251710377285235}, {"_id": "651c8ca56d76eee8e850d3c6", "identifier": "cdae5a4e-54b3-11ea-a93a-0050569afc27", "label": "Cr\u00eaperie Gigi", "streetaddress": "4 rue de la Corderie", "postalcode": 75003, "department": "Paris", "region": "\u00cele-de-France", "latitude": 48.865203857421875, "longitude": 2.3629891872406006}, {"_id": "651c8ca56d76eee8e850d3c7", "identifier": "ee44e3bb-0ceb-59b1-5d20-501ba4d75d69", "label": "Maison de Famille", "streetaddress": "10 place de la Madeleine", "postalcode": 75008, "department": "Paris", "region": "\u00cele-de-France", "latitude": 48.8693477, "longitude": 2.324758299999985}, {"_id": "651c8ca56d76eee8e850d3c8", "identifier": "5796472", "label": "Test PCU", "streetaddress": "Place Charles-de-Gaulle", "postalcode": 75008, "department": "Paris", "region": "\u00cele-de-France", "latitude": 48.873757, "longitude": 2.295909}, {"_id": "651c8ca56d76eee8e850d3c9", "identifier": "a3486aed-8fe9-962b-88e7-501ba088c79e", "label": "Zazie H\u00f4tel", "streetaddress": "3 rue de Chaligny", "postalcode": 75012, "department": "Paris", "region": "\u00cele-de-France", "latitude": 48.8453607, "longitude": 2.383390200000008}, {"_id": "651c8ca56d76eee8e850d3ca", "identifier": "ad75e8e5-6b6d-1670-f883-501ba095eaba", "label": "H\u00f4tel Ibis Styles Paris Gare Saint-Lazare", "streetaddress": "9 rue de Constantinople", "postalcode": 75008, "department": "Paris", "region": "\u00cele-de-France", "latitude": 48.8796982, "longitude": 2.3209703}, {"_id": "651c8ca56d76eee8e850d3cb", "identifier": "d44564f9-c0bf-6799-5908-501ba0732750", "label": "H\u00f4tel Duo", "streetaddress": "11 rue du Temple", "postalcode": 75004, "department": "Paris", "region": "\u00cele-de-France", "latitude": 48.8580279, "longitude": 2.3529223000000457}, {"_id": "651c8ca56d76eee8e850d3cc", "identifier": "e4636720-232d-2c96-8f0e-50ac9e4f0d7c", "label": "Balenciaga", "streetaddress": "336 rue Saint-Honor\u00e9", "postalcode": 75001, "department": "Paris", "region": "\u00cele-de-France", "latitude": 48.8658545, "longitude": 2.3304167999999663}, {"_id": "651c8ca56d76eee8e850d3cd", "identifier": "802494a4-658d-8be6-679c-501ba3dd04ba", "label": "Chapelle Notre-Dame de la M\u00e9daille Miraculeuse", "streetaddress": "140 rue du Bac", "postalcode": 75007, "department": "Paris", "region": "\u00cele-de-France", "latitude": 48.851, "longitude": 2.3237400000000434}, {"_id": "651c8ca56d76eee8e850d3ce", "identifier": "1f5e832a-49b3-11ea-bc69-0050569afc27", "label": "L\u2019\u00c9cole Ritz Escoffier", "streetaddress": "15 place Vend\u00f4me", "postalcode": 75001, "department": "Paris", "region": "\u00cele-de-France", "latitude": 48.86765800000001, "longitude": 2.3287050000000136}, {"_id": "651c8ca56d76eee8e850d3cf", "identifier": "89b880e1-fe6a-57fa-b38c-501ba4a27dbc", "label": "Westfield Forum des Halles", "streetaddress": "101 Porte Berger", "postalcode": 75001, "department": "Paris", "region": "\u00cele-de-France", "latitude": 48.8613604, "longitude": 2.346809099999973}, {"_id": "651c8ca56d76eee8e850d3d0", "identifier": "859bb62a-1711-11e8-8596-0050569a22ea", "label": "FlyView Paris", "streetaddress": "30 rue du 4 Septembre", "postalcode": 75002, "department": "Paris", "region": "\u00cele-de-France", "latitude": 48.8704646, "longitude": 2.3330766000000267}, {"_id": "651c8ca56d76eee8e850d3d1", "identifier": "b9d2461f-cf14-dc64-5cd0-50815f0babbf", "label": "Square Jules Verne", "streetaddress": "19 bis rue de l\u2019Orillon", "postalcode": 75011, "department": "Paris", "region": "\u00cele-de-France", "latitude": 48.8574262, "longitude": 2.36986150000007}, {"_id": "651c8ca66d76eee8e850d3d2", "identifier": "eec19e69-12e4-9e05-96af-501ba3b283c6", "label": "Institut finlandais", "streetaddress": "60 rue des \u00c9coles et 33 rue du Sommerard", "postalcode": 75005, "department": "Paris", "region": "\u00cele-de-France", "latitude": 48.8501403, "longitude": 2.343097700000044}, {"_id": "651c8ca66d76eee8e850d3d3", "identifier": "ea4cb200-215d-8937-b2fd-501ba38c3d68", "label": "Secret Square", "streetaddress": "27 avenue des Ternes", "postalcode": 75017, "department": "Paris", "region": "\u00cele-de-France", "latitude": 48.8782679, "longitude": 2.2948519999999917}, {"_id": "651c8ca66d76eee8e850d3d4", "identifier": "684143", "label": "Gibus Club", "streetaddress": "18 rue du Faubourg du Temple", "postalcode": 75011, "department": "Paris", "region": "\u00cele-de-France", "latitude": 48.868315, "longitude": 2.3661}, {"_id": "651c8ca66d76eee8e850d3d5", "identifier": "2918777c-0c30-b2c8-e75d-501ba4da055a", "label": "Cin\u00e9-Balade", "streetaddress": "NC", "postalcode": 75004, "department": "Paris", "region": "\u00cele-de-France", "latitude": 48.8533249, "longitude": 2.3488596}, {"_id": "651c8ca66d76eee8e850d3d6", "identifier": "e4796078-0ae1-11ea-881c-0050569afc27", "label": "Gentlemen 1919", "streetaddress": "11 rue Jean Mermoz", "postalcode": 75008, "department": "Paris", "region": "\u00cele-de-France", "latitude": 48.8709, "longitude": 2.31147}, {"_id": "651c8ca66d76eee8e850d3d7", "identifier": "8f5df967-9b34-4cac-e15c-501ba361b409", "label": "Mus\u00e9e Bourdelle", "streetaddress": "18 rue Antoine Bourdelle", "postalcode": 75015, "department": "Paris", "region": "\u00cele-de-France", "latitude": 48.84314149999999, "longitude": 2.3185435000000325}, {"_id": "651c8ca66d76eee8e850d3d8", "identifier": "f7df03f2-6d45-11ec-b3b4-0050569afc27", "label": "H\u00f4tel L\u00e9na", "streetaddress": "98 boulevard de Magenta", "postalcode": 75010, "department": "Paris", "region": "\u00cele-de-France", "latitude": 48.87777101661905, "longitude": 2.354974989944594}, {"_id": "651c8ca66d76eee8e850d3d9", "identifier": "5bcc70d2-5bf0-11ec-9251-0050569afc27", "label": "Colonne de Juillet", "streetaddress": "Place de la Bastille", "postalcode": 75011, "department": "Paris", "region": "\u00cele-de-France", "latitude": 48.853159729416106, "longitude": 2.3691415786743164}, {"_id": "651c8ca66d76eee8e850d3da", "identifier": "2af1e017-5cdf-da96-82f5-501ba3cf6504", "label": "L'Archipel", "streetaddress": "17 boulevard de Strasbourg", "postalcode": 75010, "department": "Paris", "region": "\u00cele-de-France", "latitude": 48.8704567, "longitude": 2.35468979999996}, {"_id": "651c8ca66d76eee8e850d3db", "identifier": "ea829c0b-04dc-cf21-6fe7-52e799e738cc", "label": "Nekovisit", "streetaddress": "NC", "postalcode": 75004, "department": "Paris", "region": "\u00cele-de-France", "latitude": 48.8533249, "longitude": 2.3488596}, {"_id": "651c8ca66d76eee8e850d3dc", "identifier": "3edeb08d-1db4-cf4c-19f5-501ba4cf477f", "label": "Palais des Th\u00e9s", "streetaddress": "64 rue Vieille du Temple", "postalcode": 75003, "department": "Paris", "region": "\u00cele-de-France", "latitude": 48.8591714, "longitude": 2.359488699999929}, {"_id": "651c8ca66d76eee8e850d3dd", "identifier": "ea99aa5e-aebe-bd45-76ba-50210ce4f66c", "label": "Fnac (Champs-\u00c9lys\u00e9es)", "streetaddress": "Galerie du Claridge - 74 avenue des Champs-\u00c9lys\u00e9es", "postalcode": 75008, "department": "Paris", "region": "\u00cele-de-France", "latitude": 48.8708193, "longitude": 2.304273500000022}, {"_id": "651c8ca66d76eee8e850d3de", "identifier": "5692989", "label": "Clover Grill", "streetaddress": "6 Rue Bailleul", "postalcode": 75001, "department": "Paris", "region": "\u00cele-de-France", "latitude": 48.861017, "longitude": 2.341934}, {"_id": "651c8ca66d76eee8e850d3df", "identifier": "d2af1a9b-c9e0-8756-db8c-501ba4b690d2", "label": "Karl Marc John", "streetaddress": "10 rue de Turenne", "postalcode": 75004, "department": "Paris", "region": "\u00cele-de-France", "latitude": 48.855486, "longitude": 2.3637248999999656}, {"_id": "651c8ca76d76eee8e850d3e0", "identifier": "b8711e56-f7ec-33cb-2ff6-501ba09561f9", "label": "H\u00f4tel Jardin Le Br\u00e9a", "streetaddress": "14 rue Br\u00e9a", "postalcode": 75006, "department": "Paris", "region": "\u00cele-de-France", "latitude": 48.8429318, "longitude": 2.3298151999999845}, {"_id": "651c8ca76d76eee8e850d3e1", "identifier": "685018", "label": "Downtown Caf\u00e9", "streetaddress": "46 Rue Jean-Pierre Timbaud", "postalcode": 75011, "department": "Paris", "region": "\u00cele-de-France", "latitude": 48.866247, "longitude": 2.372335}, {"_id": "651c8ca76d76eee8e850d3e2", "identifier": "16293388-27a7-665e-64af-5231902d3b49", "label": "bar 8", "streetaddress": "Mandarin Oriental, Paris - 251 rue Saint-Honor\u00e9", "postalcode": 75001, "department": "Paris", "region": "\u00cele-de-France", "latitude": 48.8671637, "longitude": 2.3268990999999914}, {"_id": "651c8ca76d76eee8e850d3e3", "identifier": "68881b8b-32b7-0390-e174-502119da142c", "label": "A la M\u00e8re de Famille", "streetaddress": "33-35 rue du Faubourg Montmartre", "postalcode": 75009, "department": "Paris", "region": "\u00cele-de-France", "latitude": 48.8739806, "longitude": 2.3424165999999786}, {"_id": "651c8ca76d76eee8e850d3e4", "identifier": "97f80d28-719b-36fa-cb78-51ffd127ac12", "label": "La Rotonde Montparnasse", "streetaddress": "105 boulevard du Montparnasse", "postalcode": 75006, "department": "Paris", "region": "\u00cele-de-France", "latitude": 48.8424554, "longitude": 2.328905999999961}, {"_id": "651c8ca76d76eee8e850d3e5", "identifier": "eb527478-dfdc-8345-8680-501b9fd57e81", "label": "H\u00f4tel Lutetia", "streetaddress": "45 boulevard Raspail", "postalcode": 75006, "department": "Paris", "region": "\u00cele-de-France", "latitude": 48.8512444, "longitude": 2.3272378000000344}, {"_id": "651c8ca76d76eee8e850d3e6", "identifier": "87b522ba-f05a-4ce8-f2fe-501ba33348e5", "label": "Square de la place du Commerce", "streetaddress": "18 place du Commerce", "postalcode": 75015, "department": "Paris", "region": "\u00cele-de-France", "latitude": 48.8445111, "longitude": 2.293706899999961}, {"_id": "651c8ca76d76eee8e850d3e7", "identifier": "6816e3fb-4d2b-12f4-2272-501ba36a0631", "label": "Bastille Design Center", "streetaddress": "74 boulevard Richard Lenoir", "postalcode": 75011, "department": "Paris", "region": "\u00cele-de-France", "latitude": 48.86092559999999, "longitude": 2.372960199999966}, {"_id": "651c8ca76d76eee8e850d3e8", "identifier": "39013a9f-9e7b-e0f1-3cd0-50758d69578a", "label": "Grande Galerie de l'\u00c9volution - Mus\u00e9um national d'histoire naturelle", "streetaddress": "36 rue Geoffroy Saint-Hilaire", "postalcode": 75005, "department": "Paris", "region": "\u00cele-de-France", "latitude": 48.8414229, "longitude": 2.3562147000000095}, {"_id": "651c8ca76d76eee8e850d3e9", "identifier": "5842155e-8e44-11eb-a3a7-0050569afc27", "label": "Hey Honey", "streetaddress": "7 rue Mayran", "postalcode": 75009, "department": "Paris", "region": "\u00cele-de-France", "latitude": 48.8771825, "longitude": 2.3451749}, {"_id": "651c8ca76d76eee8e850d3ea", "identifier": "e7a469cd-5b52-98d9-bcc9-502113d90ff3", "label": "Librairie-boutique du mus\u00e9e du quai Branly", "streetaddress": "37 quai Jacques Chirac", "postalcode": 75007, "department": "Paris", "region": "\u00cele-de-France", "latitude": 48.861899, "longitude": 2.2974409999999352}, {"_id": "651c8ca76d76eee8e850d3eb", "identifier": "8094e79d-b0c5-c136-3a29-501ba05033cd", "label": "H\u00f4tel Whistler", "streetaddress": "36 rue de Saint-Quentin", "postalcode": 75010, "department": "Paris", "region": "\u00cele-de-France", "latitude": 48.8793648, "longitude": 2.3559632000000192}, {"_id": "651c8ca76d76eee8e850d3ec", "identifier": "1fb2447d-8edd-7119-310d-57ee6d492ea8", "label": "AICV", "streetaddress": "38 bis quai de la Marne", "postalcode": 75019, "department": "Paris", "region": "\u00cele-de-France", "latitude": 48.8905238, "longitude": 2.3845472000000427}, {"_id": "651c8ca86d76eee8e850d3ed", "identifier": "70bfdc66-d08f-2c07-d5b8-501ba010961e", "label": "Citadines Place d'Italie Paris", "streetaddress": "18 place d'Italie", "postalcode": 75013, "department": "Paris", "region": "\u00cele-de-France", "latitude": 48.8306377, "longitude": 2.3549897999999985}, {"_id": "651c8ca86d76eee8e850d3ee", "identifier": "f1fe923a-62c0-7f7a-9dd3-520b373a37d5", "label": "La Cuisine", "streetaddress": "Le Royal Monceau Raffles Paris - 37 avenue Hoche", "postalcode": 75008, "department": "Paris", "region": "\u00cele-de-France", "latitude": 48.8757978, "longitude": 2.300153000000023}, {"_id": "651c8ca86d76eee8e850d3ef", "identifier": "c76001af-3abc-182e-bc23-501ba35b1c16", "label": "Spa Valmont pour Le Meurice", "streetaddress": "Le Meurice - 228 rue de Rivoli", "postalcode": 75001, "department": "Paris", "region": "\u00cele-de-France", "latitude": 48.8651668, "longitude": 2.3280494000000544}, {"_id": "651c8ca86d76eee8e850d3f0", "identifier": "5dc603a9-8b52-45a0-0cea-501ba4079909", "label": "Paris VI - Gibert Joseph - Musique - Vid\u00e9o - BD - Mangas", "streetaddress": "34 boulevard Saint-Michel", "postalcode": 75006, "department": "Paris", "region": "\u00cele-de-France", "latitude": 48.85002300000001, "longitude": 2.342495099999951}, {"_id": "651c8ca86d76eee8e850d3f1", "identifier": "54a504a2-faf9-6ccc-1abd-57519f80a0a0", "label": "H\u00f4tel Square Louvois", "streetaddress": "12 rue de Louvois", "postalcode": 75002, "department": "Paris", "region": "\u00cele-de-France", "latitude": 48.8684147, "longitude": 2.33687359999999}, {"_id": "651c8ca86d76eee8e850d3f2", "identifier": "1a46923f-af5e-8f9e-4c03-501ba4893ccd", "label": "Paris Authentic", "streetaddress": "NC", "postalcode": 75004, "department": "Paris", "region": "\u00cele-de-France", "latitude": 48.8533249, "longitude": 2.3488596}, {"_id": "651c8ca86d76eee8e850d3f3", "identifier": "176a0cb5-5003-ca68-41e6-5231dfd39946", "label": "Z\u00e9ro Z\u00e9ro", "streetaddress": "89 rue Amelot", "postalcode": 75011, "department": "Paris", "region": "\u00cele-de-France", "latitude": 48.860903, "longitude": 2.367851}, {"_id": "651c8ca86d76eee8e850d3f4", "identifier": "e0eaf4a4-1185-9585-1e95-501ba3d8433d", "label": "\u00c9cole normale sup\u00e9rieure", "streetaddress": "45 rue d'Ulm", "postalcode": 75005, "department": "Paris", "region": "\u00cele-de-France", "latitude": 48.84183669999999, "longitude": 2.3440345000000207}, {"_id": "651c8ca86d76eee8e850d3f5", "identifier": "6604208", "label": "Black Sheep Society", "streetaddress": "15 Rue Daval", "postalcode": 75011, "department": "Paris", "region": "\u00cele-de-France", "latitude": 48.854893, "longitude": 2.370813}, {"_id": "651c8ca86d76eee8e850d3f6", "identifier": "cb2ddc59-88a0-13a5-e291-5203a85a36ce", "label": "Le Rive Gauche", "streetaddress": "1 rue du Sabot", "postalcode": 75006, "department": "Paris", "region": "\u00cele-de-France", "latitude": 48.8531194, "longitude": 2.331363499999952}, {"_id": "651c8ca86d76eee8e850d3f7", "identifier": "9f994352-3d2b-11ea-a871-0050569afc27", "label": "SIXT Ride car rental with driver", "streetaddress": "10 Rue P\u00e9rignon", "postalcode": 75007, "department": "Paris", "region": "\u00cele-de-France", "latitude": 48.862725, "longitude": 2.287592}, {"_id": "651c8ca86d76eee8e850d3f8", "identifier": "a714035b-4fdb-97cb-f907-504f49bc3365", "label": "Boutique de la Com\u00e9die Fran\u00e7aise", "streetaddress": "2 rue Richelieu", "postalcode": 75001, "department": "Paris", "region": "\u00cele-de-France", "latitude": 48.86386350000001, "longitude": 2.3358898999999838}, {"_id": "651c8ca86d76eee8e850d3f9", "identifier": "6b6edc9b-125c-818f-1910-501ba3230976", "label": "Montmartre aux Artistes", "streetaddress": "189 rue Ordener", "postalcode": 75018, "department": "Paris", "region": "\u00cele-de-France", "latitude": 48.8937249, "longitude": 2.334660500000041}, {"_id": "651c8ca86d76eee8e850d3fa", "identifier": "4c14e135-0dad-758e-4264-501ba4a3f98a", "label": "March\u00e9 aux timbres", "streetaddress": "Avenue Marigny", "postalcode": 75008, "department": "Paris", "region": "\u00cele-de-France", "latitude": 48.8683716, "longitude": 2.31638989999999}, {"_id": "651c8ca96d76eee8e850d3fb", "identifier": "7de6233e-31ac-c294-fb25-51ffaa5492ef", "label": "Galerie Vivienne", "streetaddress": "4 rue des Petits-Champs", "postalcode": 75002, "department": "Paris", "region": "\u00cele-de-France", "latitude": 48.8662561, "longitude": 2.339334699999995}, {"_id": "651c8ca96d76eee8e850d3fc", "identifier": "b6d4d6c0-a441-11eb-83dd-0050569afc27", "label": "Echomus\u00e9e - Goutte d'Or", "streetaddress": "21 rue Cav\u00e9", "postalcode": 75018, "department": "Paris", "region": "\u00cele-de-France", "latitude": 48.886666, "longitude": 2.3537812}, {"_id": "651c8ca96d76eee8e850d3fd", "identifier": "6cdf6a80-1695-11ee-b88a-0050569afc27", "label": "Welgo", "streetaddress": "10 rue de Penthi\u00e8vre", "postalcode": 75008, "department": "Paris", "region": "\u00cele-de-France", "latitude": 48.873056992364, "longitude": 2.31660498414}, {"_id": "651c8ca96d76eee8e850d3fe", "identifier": "30472727-4f92-159b-5d77-501ba4beae80", "label": "Citadium", "streetaddress": "56 rue Caumartin", "postalcode": 75009, "department": "Paris", "region": "\u00cele-de-France", "latitude": 48.8757845, "longitude": 2.3285200999999915}, {"_id": "651c8ca96d76eee8e850d3ff", "identifier": "550b190a-63a2-6222-4c9a-56e844efbb31", "label": "Renaissance Paris Republique", "streetaddress": "40 rue Ren\u00e9 Boulanger", "postalcode": 75010, "department": "Paris", "region": "\u00cele-de-France", "latitude": 48.8687804, "longitude": 2.3610195999999632}, {"_id": "651c8ca96d76eee8e850d400", "identifier": "e4b2217a-c57b-1ee9-b35f-54cb66da0d5e", "label": "Le Pain Quotidien - Lepic", "streetaddress": "31 rue Lepic", "postalcode": 75018, "department": "Paris", "region": "\u00cele-de-France", "latitude": 48.8857633, "longitude": 2.334446899999989}, {"_id": "651c8ca96d76eee8e850d401", "identifier": "c1ef52e7-1806-7892-840b-501ba0c7ddf5", "label": "L'H\u00f4tel Am\u00e9ricain", "streetaddress": "72 rue Charlot", "postalcode": 75003, "department": "Paris", "region": "\u00cele-de-France", "latitude": 48.8648081, "longitude": 2.3648643999999877}, {"_id": "651c8ca96d76eee8e850d402", "identifier": "ea16c6bb-b7f0-b936-4187-53da0b678210", "label": "Le Caf\u00e9 Cach\u00e9", "streetaddress": "Le Centquatre - 104 rue d\u2019Aubervilliers", "postalcode": 75019, "department": "Paris", "region": "\u00cele-de-France", "latitude": 48.8904217, "longitude": 2.368600199999946}, {"_id": "651c8ca96d76eee8e850d403", "identifier": "18a54881-ab31-da8f-18b6-561542e713c5", "label": "Galerie 22,48m\u00b2", "streetaddress": "30 rue des Envierges", "postalcode": 75020, "department": "Paris", "region": "\u00cele-de-France", "latitude": 48.8720886, "longitude": 2.3872638999999936}, {"_id": "651c8ca96d76eee8e850d404", "identifier": "998a8bd8-ac1a-11eb-8c7b-0050569afc27", "label": "Hotel La Nouvelle R\u00e9publique", "streetaddress": "9 rue Moret", "postalcode": 75011, "department": "Paris", "region": "\u00cele-de-France", "latitude": 48.8669491, "longitude": 2.3795228}, {"_id": "651c8ca96d76eee8e850d405", "identifier": "967e1603-dbbe-7579-853a-501ba455d497", "label": "Daniel Hechter", "streetaddress": "32 avenue de l'Op\u00e9ra", "postalcode": 75002, "department": "Paris", "region": "\u00cele-de-France", "latitude": 48.8683421, "longitude": 2.333603499999981}, {"_id": "651c8ca96d76eee8e850d406", "identifier": "a43ab670-d9db-11ed-a8c5-0050569afc27", "label": "Queer Tours France", "streetaddress": "NC", "postalcode": 75004, "department": "Paris", "region": "\u00cele-de-France", "latitude": 48.8533249, "longitude": 2.3488596}, {"_id": "651c8ca96d76eee8e850d407", "identifier": "16481cef-f39d-85c2-673d-501b9f1b4753", "label": "H\u00f4tel H\u00e9lios Op\u00e9ra - Emeraude Hotels", "streetaddress": "75 rue de la Victoire", "postalcode": 75009, "department": "Paris", "region": "\u00cele-de-France", "latitude": 48.8751202, "longitude": 2.3327524999999696}, {"_id": "651c8ca96d76eee8e850d408", "identifier": "c943ce12-a539-11eb-a884-0050569afc27", "label": "Paroisse Saint-Germain de Charonne", "streetaddress": "4 place Saint-Blaise", "postalcode": 75020, "department": "Paris", "region": "\u00cele-de-France", "latitude": 48.860510950000005, "longitude": 2.4040206450068196}, {"_id": "651c8ca96d76eee8e850d409", "identifier": "e2fef7d7-04bc-59e8-f511-501ba34aea48", "label": "Square Nadar", "streetaddress": "2 rue Saint-Eleuth\u00e8re", "postalcode": 75018, "department": "Paris", "region": "\u00cele-de-France", "latitude": 48.8857879, "longitude": 2.341829700000062}, {"_id": "651c8ca96d76eee8e850d40a", "identifier": "9cf67e53-a82b-f98c-c59d-501ba3d1953f", "label": "Th\u00e9\u00e2tre de l'\u00c9p\u00e9e de Bois - La Cartoucherie", "streetaddress": "Cartoucherie de Vincennes - Route du Champ de Manoeuvre", "postalcode": 75012, "department": "Paris", "region": "\u00cele-de-France", "latitude": 48.83660057484209, "longitude": 2.4494647243286636}, {"_id": "651c8caa6d76eee8e850d40b", "identifier": "16951e80-abc5-8157-86ac-50b867ebc2f7", "label": "La Grande \u00c9picerie de Paris", "streetaddress": "38 rue de S\u00e8vres", "postalcode": 75007, "department": "Paris", "region": "\u00cele-de-France", "latitude": 48.8498214, "longitude": 2.3233192000000145}, {"_id": "651c8caa6d76eee8e850d40c", "identifier": "17ce32a4-063b-37b5-0476-501b9f9356ee", "label": "H\u00f4tel Plaza \u00c9toile - Emeraude Hotels", "streetaddress": "21 avenue  Wagram", "postalcode": 75017, "department": "Paris", "region": "\u00cele-de-France", "latitude": 48.8760449, "longitude": 2.2964657999999645}, {"_id": "651c8caa6d76eee8e850d40d", "identifier": "cd289d76-7351-cc04-5f6b-501ba32814be", "label": "Synagogue de la rue des Tournelles", "streetaddress": "21 bis rue des Tournelles", "postalcode": 75004, "department": "Paris", "region": "\u00cele-de-France", "latitude": 48.8546661, "longitude": 2.3673314999999775}, {"_id": "651c8caa6d76eee8e850d40e", "identifier": "5384492", "label": "Parcours sportif des Minimes", "streetaddress": "Bois de Vincennes", "postalcode": 75012, "department": "Paris", "region": "\u00cele-de-France", "latitude": 48.838107, "longitude": 2.460563}, {"_id": "651c8caa6d76eee8e850d40f", "identifier": "f36e5784-7933-b38c-c4f2-501ba37d4c63", "label": "Mus\u00e9e Maillol", "streetaddress": "61 rue de Grenelle", "postalcode": 75007, "department": "Paris", "region": "\u00cele-de-France", "latitude": 48.85473469999999, "longitude": 2.3248413000000028}, {"_id": "651c8caa6d76eee8e850d410", "identifier": "f20136d8-f763-849f-d92f-501ba3e7207b", "label": "Paris Hockey Club", "streetaddress": "Gymnase Ronsard - 2 rue Ronsard", "postalcode": 75018, "department": "Paris", "region": "\u00cele-de-France", "latitude": 48.8848668, "longitude": 2.34420369999998}, {"_id": "651c8caa6d76eee8e850d411", "identifier": "3b71dbff-be73-02d0-fe24-55d1ba845610", "label": "Galerie Eric Dupont", "streetaddress": "138 rue du Temple", "postalcode": 75003, "department": "Paris", "region": "\u00cele-de-France", "latitude": 48.8637746, "longitude": 2.358650500000067}, {"_id": "651c8caa6d76eee8e850d412", "identifier": "6032559", "label": "Pullman Paris Tour Eiffel", "streetaddress": "18 avenue de Suffren", "postalcode": 75015, "department": "Paris", "region": "\u00cele-de-France", "latitude": 48.85567, "longitude": 2.292869}, {"_id": "651c8caa6d76eee8e850d413", "identifier": "c9b84ed7-97ae-86f9-eac5-501ba334530e", "label": "\u00c9cole nationale sup\u00e9rieure des Beaux-arts", "streetaddress": "14 rue Bonaparte", "postalcode": 75006, "department": "Paris", "region": "\u00cele-de-France", "latitude": 48.8566077, "longitude": 2.3346182000000226}, {"_id": "651c8caa6d76eee8e850d414", "identifier": "a9023fc6-a8a8-7826-6d11-501ba388a1bb", "label": "Com\u00e9die Caumartin", "streetaddress": "25 rue Caumartin", "postalcode": 75009, "department": "Paris", "region": "\u00cele-de-France", "latitude": 48.8716248, "longitude": 2.328163600000039}, {"_id": "651c8caa6d76eee8e850d415", "identifier": "664b1b93-2714-2e8c-8948-501ba36d476b", "label": "Cabaret-Club Madame Arthur", "streetaddress": "75 rue des Martyrs", "postalcode": 75018, "department": "Paris", "region": "\u00cele-de-France", "latitude": 48.8824218, "longitude": 2.3396141000000625}, {"_id": "651c8caa6d76eee8e850d416", "identifier": "b0b64724-3112-11e8-afcc-0050569a22ea", "label": "Spoon", "streetaddress": "Palais Brongniart - 25 place de la Bourse", "postalcode": 75002, "department": "Paris", "region": "\u00cele-de-France", "latitude": 48.86914950000001, "longitude": 2.341406799999959}, {"_id": "651c8caa6d76eee8e850d417", "identifier": "d97baae5-3c66-3f8a-2d47-573dd57fa7c3", "label": "Au Cadet de Gascogne", "streetaddress": "4 place du Tertre", "postalcode": 75018, "department": "Paris", "region": "\u00cele-de-France", "latitude": 48.8862114, "longitude": 2.340527199999997}, {"_id": "651c8cab6d76eee8e850d418", "identifier": "9e8763de-8a3a-cb29-556e-5203765bdf5b", "label": "Bateau Concorde Atlantique", "streetaddress": "Port Solferino - 23 quai Anatole France", "postalcode": 75007, "department": "Paris", "region": "\u00cele-de-France", "latitude": 48.861974780576496, "longitude": 2.3223603706389895}, {"_id": "651c8cab6d76eee8e850d419", "identifier": "d8d3d888-2107-d015-d9fc-501ba4f38e47", "label": "Les Gouttes d'Or de la Mode et du Design", "streetaddress": "4 rue des Gardes", "postalcode": 75018, "department": "Paris", "region": "\u00cele-de-France", "latitude": 48.8852813, "longitude": 2.352713699999981}, {"_id": "651c8cab6d76eee8e850d41a", "identifier": "101ba744-0dbf-11e8-a2cb-0050569a22ea", "label": "Jardin d'agronomie tropicale Ren\u00e9-Dumont", "streetaddress": "45 bis avenue de la Belle-Gabrielle - Bois de Vincennes", "postalcode": 75012, "department": "Paris", "region": "\u00cele-de-France", "latitude": 48.8345043, "longitude": 2.4694540000000416}, {"_id": "651c8cab6d76eee8e850d41b", "identifier": "f2dc0d48-02bf-ba4a-6d22-50aca9568314", "label": "Maxime Simo\u00ebns", "streetaddress": "85 rue Montmartre", "postalcode": 75002, "department": "Paris", "region": "\u00cele-de-France", "latitude": 48.8676015, "longitude": 2.343775599999958}, {"_id": "651c8cab6d76eee8e850d41c", "identifier": "bb67ac18-ec00-11e8-a341-0050569a22ea", "label": "25hours Terminus Nord", "streetaddress": "12 boulevard de Denain", "postalcode": 75010, "department": "Paris", "region": "\u00cele-de-France", "latitude": 48.8795258, "longitude": 2.354939800000011}, {"_id": "651c8cab6d76eee8e850d41d", "identifier": "e00e220e-9bd4-950a-f5c7-501b9f612b58", "label": "Vintage Paris Gare du Nord by Hiphophostels", "streetaddress": "73 rue de Dunkerque", "postalcode": 75009, "department": "Paris", "region": "\u00cele-de-France", "latitude": 48.88160569999999, "longitude": 2.3471974000000273}, {"_id": "651c8cab6d76eee8e850d41e", "identifier": "9abd2432-690b-11ea-a0e6-0050569afc27", "label": "Caocao Mobility Paris", "streetaddress": "NC", "postalcode": 75004, "department": "Paris", "region": "\u00cele-de-France", "latitude": 48.8533249, "longitude": 2.3488596}, {"_id": "651c8cab6d76eee8e850d41f", "identifier": "583e0325-e24b-08c2-723c-501ba4a6636a", "label": "Montaigne Market", "streetaddress": "18 avenue Matignon", "postalcode": 75008, "department": "Paris", "region": "\u00cele-de-France", "latitude": 48.8710434, "longitude": 2.3138437000000067}, {"_id": "651c8cab6d76eee8e850d420", "identifier": "5789cc45-ac56-9236-7e3f-501ba3d46f49", "label": "Th\u00e9\u00e2tre Guignol Anatole", "streetaddress": "Parc des Buttes-Chaumont", "postalcode": 75019, "department": "Paris", "region": "\u00cele-de-France", "latitude": 48.8799741, "longitude": 2.3818407999999636}, {"_id": "651c8cab6d76eee8e850d421", "identifier": "a01ce736-41d2-352a-b172-55f933532b82", "label": "Plaine de jeux de Bagatelle", "streetaddress": "149 all\u00e9e du Bord de l'Eau", "postalcode": 75016, "department": "Paris", "region": "\u00cele-de-France", "latitude": 48.8729471, "longitude": 2.2464734000000135}, {"_id": "651c8cab6d76eee8e850d422", "identifier": "5334254", "label": "Mus\u00e9e des \u00e9gouts", "streetaddress": null, "postalcode": 75007, "department": "Paris", "region": "\u00cele-de-France", "latitude": 48.853766, "longitude": 2.312241}, {"_id": "651c8cab6d76eee8e850d423", "identifier": "59b41816-082d-2a62-cd2c-53ce730dc60b", "label": "La Javelle", "streetaddress": "Face au 20 boulevard Poniatowski", "postalcode": 75012, "department": "Paris", "region": "\u00cele-de-France", "latitude": 48.829695586560575, "longitude": 2.39054024219513}, {"_id": "651c8cab6d76eee8e850d424", "identifier": "04b9c152-d8db-11eb-81a3-0050569afc27", "label": "H\u00f4tel Madame R\u00eave", "streetaddress": "48 rue du Louvre", "postalcode": 75001, "department": "Paris", "region": "\u00cele-de-France", "latitude": 48.8645974, "longitude": 2.3428648}, {"_id": "651c8cab6d76eee8e850d425", "identifier": "8e1d0ff7-117a-4031-412c-501ba4ba079e", "label": "BookOff Quatre Septembre", "streetaddress": "11 rue Monsigny", "postalcode": 75002, "department": "Paris", "region": "\u00cele-de-France", "latitude": 48.8690176, "longitude": 2.335341500000027}, {"_id": "651c8cab6d76eee8e850d426", "identifier": "69863740-65bc-3317-daef-501ba09588fb", "label": "H\u00f4tel Longchamp \u00c9lys\u00e9es", "streetaddress": "68 rue de Longchamp", "postalcode": 75116, "department": "Paris", "region": "\u00cele-de-France", "latitude": 48.8652413, "longitude": 2.285621499999934}, {"_id": "651c8cac6d76eee8e850d427", "identifier": "561ddf65-1072-bffd-d6d0-501ba42b3d79", "label": "Rag 81", "streetaddress": "81 rue Saint-Honor\u00e9", "postalcode": 75001, "department": "Paris", "region": "\u00cele-de-France", "latitude": 48.86115600000001, "longitude": 2.343815599999971}, {"_id": "651c8cac6d76eee8e850d428", "identifier": "9886933f-5018-67aa-cf0b-50ec1be25043", "label": "March\u00e9 Auteuil", "streetaddress": "Place Jean Lorrain", "postalcode": 75016, "department": "Paris", "region": "\u00cele-de-France", "latitude": 48.8481404, "longitude": 2.264756700000021}, {"_id": "651c8cac6d76eee8e850d429", "identifier": "91bdc754-62ad-42c8-0879-501ba4278b8d", "label": "Les Climats", "streetaddress": "41 rue de Lille", "postalcode": 75007, "department": "Paris", "region": "\u00cele-de-France", "latitude": 48.8589126, "longitude": 2.328375700000038}, {"_id": "651c8cac6d76eee8e850d42a", "identifier": "83194c26-087c-af2d-adfe-50bf7d6ffbff", "label": "Corpus Christi", "streetaddress": "6 rue de Ravignan", "postalcode": 75018, "department": "Paris", "region": "\u00cele-de-France", "latitude": 48.88544419999999, "longitude": 2.337816900000007}, {"_id": "651c8cac6d76eee8e850d42b", "identifier": "a7b30b95-be16-7c59-f8b6-501ba0f9d341", "label": "Ibis Paris 17 Clichy Batignolles", "streetaddress": "10 rue Bernard Buffet", "postalcode": 75017, "department": "Paris", "region": "\u00cele-de-France", "latitude": 48.8917543, "longitude": 2.3162958000000344}, {"_id": "651c8cac6d76eee8e850d42c", "identifier": "5439218", "label": "La Cipale", "streetaddress": "51 avenue de Gravelle", "postalcode": 75012, "department": "Paris", "region": "\u00cele-de-France", "latitude": 48.825814, "longitude": 2.411779}, {"_id": "651c8cac6d76eee8e850d42d", "identifier": "7ca7c779-1867-5d89-e937-501ba4dda7da", "label": "Noon", "streetaddress": "38 rue de Berri", "postalcode": 75008, "department": "Paris", "region": "\u00cele-de-France", "latitude": 48.8738761, "longitude": 2.3069966000000477}, {"_id": "651c8cac6d76eee8e850d42e", "identifier": "caf5544a-9d12-d1de-98fa-501ba35e8f30", "label": "Le Trabendo", "streetaddress": "Parc de la Villette - 221 avenue Jean Jaur\u00e8s", "postalcode": 75019, "department": "Paris", "region": "\u00cele-de-France", "latitude": 48.89263758981461, "longitude": 2.393614800000023}, {"_id": "651c8cac6d76eee8e850d42f", "identifier": "e9c579e3-18fe-cf92-4ab3-501ba35a1dad", "label": "Aquarium de Paris", "streetaddress": "5 avenue Albert de Mun - Jardins du Trocad\u00e9ro", "postalcode": 75016, "department": "Paris", "region": "\u00cele-de-France", "latitude": 48.8630636, "longitude": 2.291775599999937}, {"_id": "651c8cac6d76eee8e850d430", "identifier": "2eace888-dd35-1fed-116f-501ba0f1e905", "label": "Le Petit Oberkampf Hotel & Spa", "streetaddress": "3 rue Oberkampf", "postalcode": 75011, "department": "Paris", "region": "\u00cele-de-France", "latitude": 48.86284389999999, "longitude": 2.3676715000000286}, {"_id": "651c8cac6d76eee8e850d431", "identifier": "131e0965-8507-0340-ddf0-501ba3897a4e", "label": "Hammam de la Mosqu\u00e9e de Paris", "streetaddress": "39 rue Saint-Hilaire", "postalcode": 75005, "department": "Paris", "region": "\u00cele-de-France", "latitude": 48.8426632, "longitude": 2.3554068999999345}, {"_id": "651c8cac6d76eee8e850d432", "identifier": "c8855628-49c9-221c-3dfd-501b9f6b0b2f", "label": "Paris Marriott Opera Ambassador", "streetaddress": "16 boulevard Haussmann", "postalcode": 75009, "department": "Paris", "region": "\u00cele-de-France", "latitude": 48.8724144, "longitude": 2.337199000000055}, {"_id": "651c8cac6d76eee8e850d433", "identifier": "1961dba2-f017-1ba6-8390-501ba4ed862e", "label": "Louisette", "streetaddress": "29 rue V\u00e9ron", "postalcode": 75018, "department": "Paris", "region": "\u00cele-de-France", "latitude": 48.8851093, "longitude": 2.335074099999929}, {"_id": "651c8cac6d76eee8e850d434", "identifier": "4374890e-1d46-290a-1d38-51efd00ed476", "label": "Restaurant Michel Rostang", "streetaddress": "20 rue Rennequin", "postalcode": 75017, "department": "Paris", "region": "\u00cele-de-France", "latitude": 48.88141359999999, "longitude": 2.2984913000000233}, {"_id": "651c8cad6d76eee8e850d435", "identifier": "6dc9b30c-9ef1-2e0c-e6be-5175505799c2", "label": "Au Palais de l'Himalaya", "streetaddress": "2 rue Briquet", "postalcode": 75018, "department": "Paris", "region": "\u00cele-de-France", "latitude": 48.8833523, "longitude": 2.34422840000002}, {"_id": "651c8cad6d76eee8e850d436", "identifier": "a6c6ec12-81d7-11ed-bf37-0050569afc27", "label": "Le Paon Qui Boit", "streetaddress": "61 rue de Meaux", "postalcode": 75019, "department": "Paris", "region": "\u00cele-de-France", "latitude": 48.8818859862545, "longitude": 2.373878025623924}, {"_id": "651c8cad6d76eee8e850d437", "identifier": "d6d10e2f-c9c6-19a8-3bd1-501ba0f9ed0f", "label": "H\u00f4tel Castille Paris \u2013 Starhotels Collezione", "streetaddress": "33-37 rue Cambon", "postalcode": 75001, "department": "Paris", "region": "\u00cele-de-France", "latitude": 48.8683121, "longitude": 2.3268551999999545}, {"_id": "651c8cad6d76eee8e850d438", "identifier": "81fa8a03-c13c-e3a8-dc14-501b9fb7f658", "label": "Maison Astor Paris, Curio Collection by Hilton", "streetaddress": "11 rue d'Astorg", "postalcode": 75008, "department": "Paris", "region": "\u00cele-de-France", "latitude": 48.872937, "longitude": 2.319471900000053}, {"_id": "651c8cad6d76eee8e850d439", "identifier": "678227", "label": "Batofar", "streetaddress": "11 quai Fran\u00e7ois Mauriac", "postalcode": 75013, "department": "Paris", "region": "\u00cele-de-France", "latitude": 48.833344, "longitude": 2.379394}, {"_id": "651c8cad6d76eee8e850d43a", "identifier": "5bc39cc7-c9f6-cc73-ba06-50b5e2eddef9", "label": "Le Bistro Saint-Andr\u00e9", "streetaddress": "36 rue Saint-Andr\u00e9 des Arts", "postalcode": 75006, "department": "Paris", "region": "\u00cele-de-France", "latitude": 48.853412, "longitude": 2.341772399999968}, {"_id": "651c8cad6d76eee8e850d43b", "identifier": "b0035b69-2441-cbc5-18ed-5584245df2c1", "label": "Aux Merveilleux de Fred", "streetaddress": "24 rue du Pont Louis Philippe", "postalcode": 75004, "department": "Paris", "region": "\u00cele-de-France", "latitude": 48.8556872, "longitude": 2.3563085000000683}, {"_id": "651c8cad6d76eee8e850d43c", "identifier": "5cb80514-8ebe-8e6a-6c92-501ba404ccad", "label": "Fat Tire Tours", "streetaddress": "24 rue Edgar Faure", "postalcode": 75015, "department": "Paris", "region": "\u00cele-de-France", "latitude": 48.8520046, "longitude": 2.2953652999999576}, {"_id": "651c8cad6d76eee8e850d43d", "identifier": "a259f685-c35e-be41-211f-501b9f56cba3", "label": "Pavillon Op\u00e9ra Grands Boulevards - Machefert Group", "streetaddress": "15 rue Geoffroy Marie", "postalcode": 75009, "department": "Paris", "region": "\u00cele-de-France", "latitude": 48.8739084, "longitude": 2.3445724}, {"_id": "651c8cad6d76eee8e850d43e", "identifier": "7c20515e-de39-64e3-a5e2-50e446c051a9", "label": "Souvenir Paris Par'ici", "streetaddress": "52 rue Mouffetard", "postalcode": 75005, "department": "Paris", "region": "\u00cele-de-France", "latitude": 48.8433135, "longitude": 2.3495015999999396}, {"_id": "651c8cad6d76eee8e850d43f", "identifier": "790e3932-cb28-e1ea-ae58-501ba384382d", "label": "Od\u00e9on - Th\u00e9\u00e2tre de l'Europe/Les Ateliers Berthier", "streetaddress": "1 rue Andr\u00e9 Suar\u00e8s", "postalcode": 75017, "department": "Paris", "region": "\u00cele-de-France", "latitude": 48.8931195, "longitude": 2.3103909999999814}, {"_id": "651c8cad6d76eee8e850d440", "identifier": "ed000322-2777-4ba6-beea-501ba308807d", "label": "La G\u00e9ode", "streetaddress": "26 avenue Corentin Cariou", "postalcode": 75019, "department": "Paris", "region": "\u00cele-de-France", "latitude": 48.8948568, "longitude": 2.388668100000018}, {"_id": "651c8cad6d76eee8e850d441", "identifier": "83a0a1a0-6f6d-5474-306c-501ba4b0b742", "label": "Centre Commercial", "streetaddress": "2 rue de Marseille", "postalcode": 75010, "department": "Paris", "region": "\u00cele-de-France", "latitude": 48.8713529, "longitude": 2.363184199999978}, {"_id": "651c8cad6d76eee8e850d442", "identifier": "7308b946-49b1-b5a2-6178-548571093ff9", "label": "Cin\u00e9ma du Panth\u00e9on", "streetaddress": "13 rue Victor Cousin", "postalcode": 75005, "department": "Paris", "region": "\u00cele-de-France", "latitude": 48.8475072, "longitude": 2.342253600000049}, {"_id": "651c8cad6d76eee8e850d443", "identifier": "b74ca86f-d17e-793a-4d2d-508802b9b73f", "label": "Krishna Bhavan", "streetaddress": "24 rue Cail", "postalcode": 75010, "department": "Paris", "region": "\u00cele-de-France", "latitude": 48.8828927, "longitude": 2.3595162999999957}, {"_id": "651c8cae6d76eee8e850d444", "identifier": "adaba5d0-a2cc-5efb-c08a-50ebfc37850b", "label": "March\u00e9 Bourse", "streetaddress": "Place de la Bourse", "postalcode": 75002, "department": "Paris", "region": "\u00cele-de-France", "latitude": 48.8686521, "longitude": 2.3413410000000567}, {"_id": "651c8cae6d76eee8e850d445", "identifier": "5027084", "label": "CopperBay", "streetaddress": "5 rue Bouchardon", "postalcode": 75010, "department": "Paris", "region": "\u00cele-de-France", "latitude": 48.869877, "longitude": 2.357153}, {"_id": "651c8cae6d76eee8e850d446", "identifier": "4778435", "label": "H\u00f4tel Ch\u00e2teau Frontenac", "streetaddress": "54 rue Pierre Charron", "postalcode": 75008, "department": "Paris", "region": "\u00cele-de-France", "latitude": 48.869091, "longitude": 2.302747}, {"_id": "651c8cae6d76eee8e850d447", "identifier": "c541ccec-fdbe-bdc1-8bab-501ba3f870b6", "label": "H\u00f4tel national des Invalides", "streetaddress": "Esplanade des Invalides", "postalcode": 75007, "department": "Paris", "region": "\u00cele-de-France", "latitude": 48.8612598, "longitude": 2.3132653999999775}, {"_id": "651c8cae6d76eee8e850d448", "identifier": "2ed03462-543e-ed96-3441-555c4519443c", "label": "Pharmacie principale de la Porte d'Orl\u00e9ans", "streetaddress": "4 place du 25 ao\u00fbt 1944", "postalcode": 75014, "department": "Paris", "region": "\u00cele-de-France", "latitude": 48.8230161, "longitude": 2.325030999999967}, {"_id": "651c8cae6d76eee8e850d449", "identifier": "a72722c6-de41-11ea-9ebd-0050569afc27", "label": "Cali Sisters", "streetaddress": "17 rue Notre-Dame des Victoires", "postalcode": 75002, "department": "Paris", "region": "\u00cele-de-France", "latitude": 48.867855072021484, "longitude": 2.3416378498077393}, {"_id": "651c8cae6d76eee8e850d44a", "identifier": "1d16cc6b-ac57-ca2a-f670-51432e7ba769", "label": "Les Ateliers du Palais", "streetaddress": "Sur rendez-vous uniquement - 41 rue de Richelieu", "postalcode": 75001, "department": "Paris", "region": "\u00cele-de-France", "latitude": 48.8658244, "longitude": 2.336862300000007}, {"_id": "651c8cae6d76eee8e850d44b", "identifier": "508c0f41-3440-c91b-d72c-501ba4959ac6", "label": "Le Chardenoux - Cyril Lignac", "streetaddress": "1 rue Jules Vall\u00e8s", "postalcode": 75011, "department": "Paris", "region": "\u00cele-de-France", "latitude": 48.8527289, "longitude": 2.385031300000037}, {"_id": "651c8cae6d76eee8e850d44c", "identifier": "6acd4232-9dfe-9b3b-5a8c-501ba03e3654", "label": "Adagio Paris Buttes-Chaumont", "streetaddress": "3-5 cours du 7e Art", "postalcode": 75019, "department": "Paris", "region": "\u00cele-de-France", "latitude": 48.8781414, "longitude": 2.38684539999997}, {"_id": "651c8cae6d76eee8e850d44d", "identifier": "bc8d1b62-5c4a-35da-98d7-501ba4f120bc", "label": "Eleven Paris", "streetaddress": "32 rue \u00c9tienne Marcel", "postalcode": 75002, "department": "Paris", "region": "\u00cele-de-France", "latitude": 48.8644402, "longitude": 2.346663499999977}, {"_id": "651c8cae6d76eee8e850d44e", "identifier": "2b5fd9f9-bb7f-c8d7-0f7e-559b8f9bd491", "label": "Maison Souquet", "streetaddress": "10 rue de Bruxelles", "postalcode": 75009, "department": "Paris", "region": "\u00cele-de-France", "latitude": 48.88366, "longitude": 2.331384500000013}, {"_id": "651c8cae6d76eee8e850d44f", "identifier": "a20ce849-3ad8-4e18-ea5d-501ba3b1e896", "label": "Ateliers d'Artistes - Les Frigos", "streetaddress": "19 rue des Frigos", "postalcode": 75013, "department": "Paris", "region": "\u00cele-de-France", "latitude": 48.83158599999999, "longitude": 2.3791645000000017}, {"_id": "651c8cae6d76eee8e850d450", "identifier": "a868e240-780d-3b3b-5c24-501ba070d328", "label": "Les Plumes", "streetaddress": "10 rue Lamartine", "postalcode": 75009, "department": "Paris", "region": "\u00cele-de-France", "latitude": 48.8765818, "longitude": 2.3433608000000277}, {"_id": "651c8cae6d76eee8e850d451", "identifier": "c79cd49d-c361-be34-b621-517154c32f11", "label": "Divellec", "streetaddress": "18 rue Fabert", "postalcode": 75007, "department": "Paris", "region": "\u00cele-de-France", "latitude": 48.8610261, "longitude": 2.311183700000015}, {"_id": "651c8cae6d76eee8e850d452", "identifier": "efeacaa3-0a0f-8a1a-cbe7-501ba4dc774f", "label": "Maje", "streetaddress": "16 rue du Commerce", "postalcode": 75015, "department": "Paris", "region": "\u00cele-de-France", "latitude": 48.84813990000001, "longitude": 2.2967877999999473}, {"_id": "651c8caf6d76eee8e850d453", "identifier": "30a276ad-ef7b-db69-7e5c-501ba0e56df7", "label": "H\u00f4tel Saint-Roch", "streetaddress": "25 rue Saint-Roch", "postalcode": 75001, "department": "Paris", "region": "\u00cele-de-France", "latitude": 48.8657753, "longitude": 2.3323573000000124}, {"_id": "651c8caf6d76eee8e850d454", "identifier": "5fd21c13-f428-5071-0512-501ba38e05c1", "label": "Paroisse Saint-Nicolas des Champs", "streetaddress": "254 rue Saint-Martin", "postalcode": 75003, "department": "Paris", "region": "\u00cele-de-France", "latitude": 48.8659667, "longitude": 2.3537794999999733}, {"_id": "651c8caf6d76eee8e850d455", "identifier": "a880b978-7555-11ec-ae89-0050569afc27", "label": "P\u00e9niche le Marcounet", "streetaddress": "14 quai de l\u2019Hotel de Ville", "postalcode": 75004, "department": "Paris", "region": "\u00cele-de-France", "latitude": 48.8534061, "longitude": 2.3564823}, {"_id": "651c8caf6d76eee8e850d456", "identifier": "6f9dd5c6-c922-591c-c38f-521c9a3f78ca", "label": "Mulberry", "streetaddress": "275 rue Saint-Honor\u00e9", "postalcode": 75001, "department": "Paris", "region": "\u00cele-de-France", "latitude": 48.86784189999999, "longitude": 2.324146799999994}, {"_id": "651c8caf6d76eee8e850d457", "identifier": "5658726", "label": "Peter Pan, le musical", "streetaddress": "14-20, rue de la Ga\u00eet\u00e9", "postalcode": 75014, "department": "Paris", "region": "\u00cele-de-France", "latitude": 48.839956, "longitude": 2.323694}, {"_id": "651c8caf6d76eee8e850d458", "identifier": "8e50ce6e-9743-11e9-86f4-0050569afc27", "label": "Mama Shelter Paris West", "streetaddress": "20 avenue de la Porte de la Plaine", "postalcode": 75015, "department": "Paris", "region": "\u00cele-de-France", "latitude": 48.829304, "longitude": 2.292312}, {"_id": "651c8caf6d76eee8e850d459", "identifier": "89c80f9b-6061-d93d-8777-501ba4f3fe13", "label": "Christofle", "streetaddress": "9 rue Royale", "postalcode": 75008, "department": "Paris", "region": "\u00cele-de-France", "latitude": 48.86795919999999, "longitude": 2.32325800000001}, {"_id": "651c8caf6d76eee8e850d45a", "identifier": "8b663ef9-b9f2-5ab1-ab38-501ba356ff13", "label": "Th\u00e9\u00e2tre de la Cit\u00e9 Internationale", "streetaddress": "21 boulevard Jourdan", "postalcode": 75014, "department": "Paris", "region": "\u00cele-de-France", "latitude": 48.8203164, "longitude": 2.3377404999999953}, {"_id": "651c8caf6d76eee8e850d45b", "identifier": "57c3691d-a168-b9c5-d8f5-501ba4650628", "label": "Come on Eileen", "streetaddress": "16 rue des Taillandiers", "postalcode": 75011, "department": "Paris", "region": "\u00cele-de-France", "latitude": 48.8547272, "longitude": 2.3750365999999303}, {"_id": "651c8caf6d76eee8e850d45c", "identifier": "6a279e32-a52d-9800-56bc-52efc9b33051", "label": "L'Auberge du Bonheur", "streetaddress": "All\u00e9e de Longchamp - Bois de Boulogne", "postalcode": 75016, "department": "Paris", "region": "\u00cele-de-France", "latitude": 48.8670645, "longitude": 2.249271099999987}, {"_id": "651c8caf6d76eee8e850d45d", "identifier": "89efc5ad-de7d-39c4-2ec9-501b9f4fb11f", "label": "Fraser Suites Le Claridge Champs-\u00c9lys\u00e9es", "streetaddress": "74 avenue des Champs-\u00c9lys\u00e9es", "postalcode": 75008, "department": "Paris", "region": "\u00cele-de-France", "latitude": 48.8708193, "longitude": 2.304273500000022}, {"_id": "651c8caf6d76eee8e850d45e", "identifier": "2e997eef-0d26-c192-ed5f-501ba4214553", "label": "Disneyland\u00ae Paris Express - Magic Ways", "streetaddress": "18 rue Royale", "postalcode": 75008, "department": "Paris", "region": "\u00cele-de-France", "latitude": 48.86880111694336, "longitude": 2.323485851287842}, {"_id": "651c8caf6d76eee8e850d45f", "identifier": "9fbf5a89-f1d6-dcf5-c4dc-501ba3ee8198", "label": "Biblioth\u00e8que Nationale de France - Richelieu", "streetaddress": "58 rue de Richelieu", "postalcode": 75002, "department": "Paris", "region": "\u00cele-de-France", "latitude": 48.8679064, "longitude": 2.3381193999999823}, {"_id": "651c8caf6d76eee8e850d460", "identifier": "3559cbb9-17d6-dbda-96ba-51eeaa0c0e09", "label": "Le Pantruche", "streetaddress": "3 rue Victor Mass\u00e9", "postalcode": 75009, "department": "Paris", "region": "\u00cele-de-France", "latitude": 48.88042, "longitude": 2.340173400000026}, {"_id": "651c8cb06d76eee8e850d461", "identifier": "7187ca90-f239-7ecc-0421-5203928bfeb0", "label": "L\u2019Antidote", "streetaddress": "45 rue Descartes", "postalcode": 75005, "department": "Paris", "region": "\u00cele-de-France", "latitude": 48.8452744, "longitude": 2.349151300000017}, {"_id": "651c8cb06d76eee8e850d462", "identifier": "16a3cc34-df96-2d72-fb70-5183b5912389", "label": "Angelina Mus\u00e9e du Luxembourg", "streetaddress": "19 rue de Vaugirard", "postalcode": 75006, "department": "Paris", "region": "\u00cele-de-France", "latitude": 48.84875419999999, "longitude": 2.333988399999953}, {"_id": "651c8cb06d76eee8e850d463", "identifier": "1cc78a18-9d3d-a056-e769-501ba4752526", "label": "EPMT - \u00c9cole de Paris des m\u00e9tiers de la table", "streetaddress": "17 rue Jacques Ibert", "postalcode": 75017, "department": "Paris", "region": "\u00cele-de-France", "latitude": 48.888774, "longitude": 2.2904988999999887}, {"_id": "651c8cb06d76eee8e850d464", "identifier": "a7045ef0-2995-6e65-d7ce-53d648d22fb9", "label": "Siamin", "streetaddress": "19 rue Bayard", "postalcode": 75008, "department": "Paris", "region": "\u00cele-de-France", "latitude": 48.86687680000001, "longitude": 2.3074629000000186}, {"_id": "651c8cb06d76eee8e850d465", "identifier": "c4f0cb6f-13dd-0074-d058-5314627bcb34", "label": "Akrame", "streetaddress": "7 rue Tronchet", "postalcode": 75008, "department": "Paris", "region": "\u00cele-de-France", "latitude": 48.8714165, "longitude": 2.3251473999999916}, {"_id": "651c8cb06d76eee8e850d466", "identifier": "2e3ea23b-79a5-2009-3308-55d331e35897", "label": "Le Pavillon des Canaux", "streetaddress": "39 quai de la Loire", "postalcode": 75019, "department": "Paris", "region": "\u00cele-de-France", "latitude": 48.8874256, "longitude": 2.378704700000071}, {"_id": "651c8cb06d76eee8e850d467", "identifier": "ed36ab53-4060-22e9-571f-501ba081a190", "label": "H\u00f4tel de Seine", "streetaddress": "52 rue de Seine", "postalcode": 75006, "department": "Paris", "region": "\u00cele-de-France", "latitude": 48.85437590000001, "longitude": 2.336855900000046}, {"_id": "651c8cb06d76eee8e850d468", "identifier": "684901", "label": "Le Boeuf sur le Toit", "streetaddress": "34 Rue du Colis\u00e9e", "postalcode": 75008, "department": "Paris", "region": "\u00cele-de-France", "latitude": 48.871222, "longitude": 2.31056}, {"_id": "651c8cb06d76eee8e850d469", "identifier": "598e7e4a-7bc1-7cfc-ad9a-506d90e11051", "label": "Chez Shen", "streetaddress": "39 rue au Maire", "postalcode": 75003, "department": "Paris", "region": "\u00cele-de-France", "latitude": 48.8647347, "longitude": 2.355698200000006}, {"_id": "651c8cb06d76eee8e850d46a", "identifier": "7cab74f2-9e1b-11ec-90b8-0050569afc27", "label": "H\u00f4tel Camille Paris Paris Gare de Lyon, Tapestry Collection by Hilton", "streetaddress": "5 rue de Lyon", "postalcode": 75012, "department": "Paris", "region": "\u00cele-de-France", "latitude": 48.8462647, "longitude": 2.3719774}, {"_id": "651c8cb06d76eee8e850d46b", "identifier": "277a6e76-a4b6-d97d-01f2-5909b4a7e69d", "label": "APGILS - Association de Guides-Interpr\u00e8tes et Conf\u00e9renciers Professionnels en langues scandinaves", "streetaddress": "NC", "postalcode": 75004, "department": "Paris", "region": "\u00cele-de-France", "latitude": 48.8533249, "longitude": 2.3488596}, {"_id": "651c8cb06d76eee8e850d46c", "identifier": "3edca170-b80b-484f-fb17-53b2ca1927f8", "label": "Auberge de Venise", "streetaddress": "2 rue de la Bastille", "postalcode": 75004, "department": "Paris", "region": "\u00cele-de-France", "latitude": 48.85380079999999, "longitude": 2.368181400000026}, {"_id": "651c8cb06d76eee8e850d46d", "identifier": "b0769539-039b-fad4-93aa-501b9fa7aec5", "label": "Villa Beaumarchais - Machefert Group", "streetaddress": "5 rue des Arquebusiers", "postalcode": 75003, "department": "Paris", "region": "\u00cele-de-France", "latitude": 48.8591004, "longitude": 2.36680350000006}, {"_id": "651c8cb06d76eee8e850d46e", "identifier": "4761705", "label": "H\u00f4tel Franklin Roosevelt", "streetaddress": "18 rue Cl\u00e9ment Marot", "postalcode": 75008, "department": "Paris", "region": "\u00cele-de-France", "latitude": 48.867815, "longitude": 2.303184}, {"_id": "651c8cb06d76eee8e850d46f", "identifier": "b82bca79-fc63-73b0-052d-51ac9dfd209e", "label": "Le Louxor - Palais du cin\u00e9ma", "streetaddress": "170 boulevard Magenta", "postalcode": 75010, "department": "Paris", "region": "\u00cele-de-France", "latitude": 48.88353619999999, "longitude": 2.3495503000000326}, {"_id": "651c8cb16d76eee8e850d470", "identifier": "496c0e1a-df8a-7efd-99e6-501ba3f4c694", "label": "Th\u00e9\u00e2tre des Vari\u00e9t\u00e9s", "streetaddress": "7 boulevard Montmartre", "postalcode": 75002, "department": "Paris", "region": "\u00cele-de-France", "latitude": 48.8715069, "longitude": 2.3421421000000464}, {"_id": "651c8cb16d76eee8e850d471", "identifier": "685049", "label": "L'OPA", "streetaddress": "9 Rue Biscornet", "postalcode": 75012, "department": "Paris", "region": "\u00cele-de-France", "latitude": 48.850327, "longitude": 2.369709}, {"_id": "651c8cb16d76eee8e850d472", "identifier": "e7093401-91b9-94ce-149b-501ba3657848", "label": "MK2 Quai de Seine", "streetaddress": "14 quai de la Seine", "postalcode": 75019, "department": "Paris", "region": "\u00cele-de-France", "latitude": 48.88484159999999, "longitude": 2.3707197999999607}, {"_id": "651c8cb16d76eee8e850d473", "identifier": "8d1a83d6-2543-8aab-19c8-50aca8dde471", "label": "Manoush", "streetaddress": "16 avenue Montaigne", "postalcode": 75008, "department": "Paris", "region": "\u00cele-de-France", "latitude": 48.86597, "longitude": 2.304755}, {"_id": "651c8cb16d76eee8e850d474", "identifier": "a496d8ac-36ca-dbd9-8baa-50bf797b7c83", "label": "Maison Fabre", "streetaddress": "Jardins du Palais Royal - 128-129 Galerie de Valois", "postalcode": 75001, "department": "Paris", "region": "\u00cele-de-France", "latitude": 48.8639448, "longitude": 2.337866800000029}, {"_id": "651c8cb16d76eee8e850d475", "identifier": "7ed4f77d-2f43-a3d5-539b-501ba381f247", "label": "Caf\u00e9 de la Danse", "streetaddress": "5 passage Louis Philippe", "postalcode": 75011, "department": "Paris", "region": "\u00cele-de-France", "latitude": 48.85326939999999, "longitude": 2.3734120000000303}, {"_id": "651c8cb16d76eee8e850d476", "identifier": "1a1d65b2-0089-11ee-b846-0050569afc27", "label": "Pastel (Batignolles)", "streetaddress": "29 rue des Batignolles", "postalcode": 75017, "department": "Paris", "region": "\u00cele-de-France", "latitude": 48.88472699042629, "longitude": 2.321083015911796}, {"_id": "651c8cb16d76eee8e850d477", "identifier": "c8007ded-ccfa-1023-7fa6-585263245c9d", "label": "Espace Sensoriel Dans le Noir ? Paris", "streetaddress": "40 rue Quincampoix", "postalcode": 75004, "department": "Paris", "region": "\u00cele-de-France", "latitude": 48.86082498769315, "longitude": 2.3504729859300255}, {"_id": "651c8cb16d76eee8e850d478", "identifier": "ccb5a23b-0b1e-f019-8239-501ba016c20c", "label": "H\u00f4tel Chavanel", "streetaddress": "22 rue Tronchet", "postalcode": 75008, "department": "Paris", "region": "\u00cele-de-France", "latitude": 48.8725886, "longitude": 2.3264369999999417}, {"_id": "651c8cb16d76eee8e850d479", "identifier": "e9120f05-06c1-606b-ab88-501ba477fadd", "label": "Palais Royal - Serge Lutens", "streetaddress": "Jardins du Palais-Royal - 142 galerie de Valois", "postalcode": 75001, "department": "Paris", "region": "\u00cele-de-France", "latitude": 48.86392900000001, "longitude": 2.337857999999983}, {"_id": "651c8cb16d76eee8e850d47a", "identifier": "b7ec6a98-0026-4110-1f03-58861824383d", "label": "Handilib / Scooters Rascal", "streetaddress": "Parking Anvers - 41 boulevard de Rochechouart", "postalcode": 75009, "department": "Paris", "region": "\u00cele-de-France", "latitude": 48.8821486, "longitude": 2.3437501999999313}, {"_id": "651c8cb16d76eee8e850d47b", "identifier": "3a7f1aa8-fb98-11ed-8230-0050569afc27", "label": "Paradox Museum Paris", "streetaddress": "38 boulevard des Italiens", "postalcode": 75009, "department": "Paris", "region": "\u00cele-de-France", "latitude": 48.87118698976525, "longitude": 2.334433040737366}, {"_id": "651c8cb16d76eee8e850d47c", "identifier": "e4750caa-1243-11ed-9a46-0050569afc27", "label": "Paris Boat Club", "streetaddress": "Escale de Beaugrenelle", "postalcode": 75015, "department": "Paris", "region": "\u00cele-de-France", "latitude": 48.84948655666215, "longitude": 2.2806801141324864}, {"_id": "651c8cb16d76eee8e850d47d", "identifier": "a318c576-0ee3-9a0c-06bc-51efdb539b41", "label": "Unico", "streetaddress": "15 rue Paul Bert", "postalcode": 75011, "department": "Paris", "region": "\u00cele-de-France", "latitude": 48.8520214, "longitude": 2.3847086000000672}, {"_id": "651c8cb26d76eee8e850d47e", "identifier": "4d125eef-6cb9-dc76-49d0-553e3845d27b", "label": "Ladur\u00e9e Champs-Elys\u00e9es", "streetaddress": "75 avenue des Champs Elys\u00e9es", "postalcode": 75008, "department": "Paris", "region": "\u00cele-de-France", "latitude": 48.870814, "longitude": 2.3030644000000393}, {"_id": "651c8cb26d76eee8e850d47f", "identifier": "5826157", "label": "H\u00f4tel Elys\u00e9es Gare de Lyon", "streetaddress": "234 Rue de Bercy", "postalcode": 75012, "department": "Paris", "region": "\u00cele-de-France", "latitude": 48.84668, "longitude": 2.369948}, {"_id": "651c8cb26d76eee8e850d480", "identifier": "918347", "label": "Daroco", "streetaddress": "6 rue Vivienne", "postalcode": 75002, "department": "Paris", "region": "\u00cele-de-France", "latitude": 48.86719, "longitude": 2.339173}, {"_id": "651c8cb26d76eee8e850d481", "identifier": "682041", "label": "Caf\u00e9 des Sports", "streetaddress": "94 rue de Menilmontant", "postalcode": 75020, "department": "Paris", "region": "\u00cele-de-France", "latitude": 48.869196, "longitude": 2.39192}, {"_id": "651c8cb26d76eee8e850d482", "identifier": "a5a90b27-3968-24de-c214-501ba0380eb2", "label": "H\u00f4tel Regina", "streetaddress": "2 place des Pyramides", "postalcode": 75001, "department": "Paris", "region": "\u00cele-de-France", "latitude": 48.8637503, "longitude": 2.3320406000000276}, {"_id": "651c8cb26d76eee8e850d483", "identifier": "262dd8dd-b3b3-2715-4f9b-501ba3b9d70b", "label": "Yazen", "streetaddress": "34 bis rue Vignon", "postalcode": 75009, "department": "Paris", "region": "\u00cele-de-France", "latitude": 48.872331, "longitude": 2.3265954999999394}, {"_id": "651c8cb26d76eee8e850d484", "identifier": "5d4650ad-8ad9-58b0-9a7e-51ffc8da8a2a", "label": "Galerie Colbert", "streetaddress": "4 rue Vivienne", "postalcode": 75002, "department": "Paris", "region": "\u00cele-de-France", "latitude": 48.8666965, "longitude": 2.3389031000000386}, {"_id": "651c8cb26d76eee8e850d485", "identifier": "683890", "label": "Mus\u00e9e Marmottan Monet", "streetaddress": "2 rue Louis Boilly", "postalcode": 75016, "department": "Paris", "region": "\u00cele-de-France", "latitude": 48.859226, "longitude": 2.267221}, {"_id": "651c8cb26d76eee8e850d486", "identifier": "a45c0e35-cd51-89a0-0bfb-532b0c89591f", "label": "Yoyo", "streetaddress": "Palais de Tokyo - 13 avenue du Pr\u00e9sident Wilson", "postalcode": 75016, "department": "Paris", "region": "\u00cele-de-France", "latitude": 48.8643979, "longitude": 2.2929807000000437}, {"_id": "651c8cb26d76eee8e850d487", "identifier": "2bb32069-295b-562d-9ea0-568114b7aade", "label": "Hotel Paris Bastille Boutet \u2013 MGallery", "streetaddress": "22-24 rue Faidherbe", "postalcode": 75011, "department": "Paris", "region": "\u00cele-de-France", "latitude": 48.8519194, "longitude": 2.3839470000000347}, {"_id": "651c8cb26d76eee8e850d488", "identifier": "4956684", "label": "L'Atelier des Lumi\u00e8res", "streetaddress": "38 rue Saint-Maur", "postalcode": 75011, "department": "Paris", "region": "\u00cele-de-France", "latitude": 48.861615, "longitude": 2.380813}, {"_id": "651c8cb26d76eee8e850d489", "identifier": "8953da3f-b32a-1116-e9c4-502125df90c5", "label": "Jean-Paul H\u00e9vin", "streetaddress": "231 rue Saint-Honor\u00e9", "postalcode": 75001, "department": "Paris", "region": "\u00cele-de-France", "latitude": 48.8661304, "longitude": 2.3291165000000547}, {"_id": "651c8cb26d76eee8e850d48a", "identifier": "a549ced6-a43e-11eb-8c83-0050569afc27", "label": "Fontaines Landowski", "streetaddress": "Place de la porte de Saint-Cloud", "postalcode": 75016, "department": "Paris", "region": "\u00cele-de-France", "latitude": 48.8374817, "longitude": 2.2571977}, {"_id": "651c8cb26d76eee8e850d48b", "identifier": "f12283e3-9c8d-833e-3c8f-50b61a1d6ed4", "label": "Le Pachyderme", "streetaddress": "2 bis boulevard Saint-Martin", "postalcode": 75010, "department": "Paris", "region": "\u00cele-de-France", "latitude": 48.86850039999999, "longitude": 2.3587023000000045}, {"_id": "651c8cb26d76eee8e850d48c", "identifier": "6348076", "label": "Les Dimanches Plaisirs \u00e0 l\u2019Hippodrome Paris-Vincennes", "streetaddress": "2 route de la ferme", "postalcode": 75012, "department": "Paris", "region": "\u00cele-de-France", "latitude": 48.820896, "longitude": 2.452039}, {"_id": "651c8cb36d76eee8e850d48d", "identifier": "d6c16c61-ecdc-39d0-cb20-50c5da2be32b", "label": "Bulgari", "streetaddress": "25 place Vend\u00f4me", "postalcode": 75001, "department": "Paris", "region": "\u00cele-de-France", "latitude": 48.8682379, "longitude": 2.330017699999985}, {"_id": "651c8cb36d76eee8e850d48e", "identifier": "699581", "label": "Mus\u00e9e national de la Marine - Ferm\u00e9 jusqu'en 2022", "streetaddress": "17 place du Trocad\u00e9ro", "postalcode": 75016, "department": "Paris", "region": "\u00cele-de-France", "latitude": 48.86236, "longitude": 2.2881}, {"_id": "651c8cb36d76eee8e850d48f", "identifier": "4686b0b2-e4db-6d4d-2b6c-51d6dd9464a2", "label": "Le Sans-Souci", "streetaddress": "65 rue Jean-Baptiste Pigalle", "postalcode": 75009, "department": "Paris", "region": "\u00cele-de-France", "latitude": 48.8813544, "longitude": 2.3362051000000292}, {"_id": "651c8cb36d76eee8e850d490", "identifier": "1dec2d65-4ae4-721a-6d60-52cd7d91eb03", "label": "Anciennes de Prestige", "streetaddress": "NC", "postalcode": 75004, "department": "Paris", "region": "\u00cele-de-France", "latitude": 48.8533249, "longitude": 2.3488596}, {"_id": "651c8cb36d76eee8e850d491", "identifier": "a39fc20e-1314-13f8-30c5-501ba3643a3c", "label": "Le Monfort Th\u00e9\u00e2tre", "streetaddress": "106 rue Brancion", "postalcode": 75015, "department": "Paris", "region": "\u00cele-de-France", "latitude": 48.83079739999999, "longitude": 2.300176599999986},